$GPGSA,A,1,,,,,,,,,,,,,,,*1E
$GPGSV,1,1,0,,,,,,,,,,,,,,,,*49
$GPRMC,091819.00,A,3110.7591906,N,12124.3641003,E,0.04,0.00,071222,0.0,E,A*3C
$GPGGA,091819.00,3110.7591906,N,12124.3641003,E,1,08,1.0,24.563,M,10.843,M,1.0,*7B
$GPGSA,A,3,04,08,09,16,18,26,27,31,,,,,2.1,1.1,1.8,1*2D
$GPGSV,2,1,08,04,51,268,00,08,43,212,00,09,27,306,00,16,60,004,00,1*61
$GPGSV,2,2,08,18,14,060,00,26,40,051,00,27,78,181,00,31,25,117,00,1*62
$GPRMC,091820.00,A,3110.7591628,N,12124.3641888,E,0.03,0.00,071222,0.0,E,A*39
$GPGGA,091820.00,3110.7591628,N,12124.3641888,E,1,08,1.0,24.666,M,10.843,M,1.0,*7F
$GPGSA,A,3,04,08,09,16,18,26,27,31,,,,,2.1,1.1,1.8,1*2D
$GPGSV,2,1,08,04,51,268,00,08,43,212,00,09,27,306,00,16,60,004,00,1*61
$GPGSV,2,2,08,18,14,060,00,26,40,051,00,27,78,181,00,31,25,117,00,1*62
$GPRMC,091821.00,A,3110.7592334,N,12124.3642317,E,0.03,0.00,071222,0.0,E,A*3D
$GPGGA,091821.00,3110.7592334,N,12124.3642317,E,1,08,1.0,24.713,M,10.843,M,1.0,*78
$GPGSA,A,3,04,08,09,16,18,26,27,31,,,,,2.1,1.1,1.8,1*2D
$GPGSV,2,1,08,04,51,268,00,08,43,212,00,09,27,306,00,16,60,004,00,1*61
$GPGSV,2,2,08,18,14,060,00,26,40,051,00,27,78,181,00,31,25,117,00,1*62
$GPRMC,091822.00,A,3110.7592360,N,12124.3641658,E,0.02,0.00,071222,0.0,E,A*33
$GPGGA,091822.00,3110.7592360,N,12124.3641658,E,1,08,1.0,24.821,M,10.843,M,1.0,*79
$GPGSA,A,3,04,08,09,16,18,26,27,31,,,,,2.1,1.1,1.8,1*2D
$GPGSV,2,1,08,04,51,268,00,08,43,212,00,09,27,306,00,16,60,004,00,1*61
$GPGSV,2,2,08,18,14,060,00,26,40,051,00,27,78,181,00,31,25,117,00,1*62
$GPRMC,091823.00,A,3110.7592255,N,12124.3640106,E,0.03,0.00,071222,0.0,E,A*39
$GPGGA,091823.00,3110.7592255,N,12124.3640106,E,1,08,1.0,25.203,M,10.843,M,1.0,*79
$GPGSA,A,3,04,08,09,16,18,26,27,31,,,,,2.1,1.1,1.8,1*2D
$GPGSV,2,1,08,04,51,268,00,08,43,212,00,09,27,306,00,16,60,004,00,1*61
$GPGSV,2,2,08,18,14,060,00,26,40,051,00,27,78,181,00,31,25,117,00,1*62
$GPRMC,091824.00,A,3110.7582662,N,12124.3630868,E,0.02,0.00,071222,0.0,E,D*3D
$GPGGA,091824.00,3110.7582662,N,12124.3630868,E,4,07,1.0,28.623,M,10.843,M,1.0,*78
$GPGSA,A,3,04,08,09,16,18,26,27,31,,,,,2.1,1.1,1.8,1*2D
$GPGSV,2,1,08,04,51,268,44,08,43,212,46,09,27,306,41,16,60,004,46,1*64
$GPGSV,2,2,08,18,14,060,00,26,40,051,44,27,78,181,48,31,25,117,42,1*68
$GPRMC,091825.00,A,3110.7582647,N,12124.3630862,E,0.06,0.00,071222,0.0,E,D*35
$GPGGA,091825.00,3110.7582647,N,12124.3630862,E,4,07,1.0,28.626,M,10.843,M,1.0,*71
$GPGSA,A,3,04,08,09,16,18,26,27,31,,,,,2.1,1.1,1.8,1*2D
$GPGSV,2,1,08,04,51,268,44,08,43,212,46,09,27,306,41,16,60,004,46,1*64
$GPGSV,2,2,08,18,14,060,00,26,40,051,44,27,78,181,48,31,25,117,42,1*68
$GPRMC,091826.00,A,3110.7582647,N,12124.3630866,E,0.03,0.00,071222,0.0,E,D*37
$GPGGA,091826.00,3110.7582647,N,12124.3630866,E,4,07,1.0,28.626,M,10.843,M,1.0,*76
$GPGSA,A,3,04,08,09,16,18,26,27,31,,,,,2.1,1.1,1.8,1*2D
$GPGSV,2,1,08,04,51,268,44,08,43,212,46,09,27,306,41,16,60,004,46,1*64
$GPGSV,2,2,08,18,14,060,00,26,40,052,44,27,78,181,48,31,25,117,42,1*6B
$GPRMC,091827.00,A,3110.7582648,N,12124.3630855,E,0.03,0.00,071222,0.0,E,D*39
$GPGGA,091827.00,3110.7582648,N,12124.3630855,E,4,07,1.0,28.627,M,10.843,M,1.0,*79
$GPGSA,A,3,04,08,09,16,18,26,27,31,,,,,2.1,1.1,1.8,1*2D
$GPGSV,2,1,08,04,51,268,44,08,43,212,46,09,27,306,41,16,60,004,46,1*64
$GPGSV,2,2,08,18,14,060,00,26,40,052,44,27,78,181,48,31,25,117,42,1*6B
$GPRMC,091828.00,A,3110.7582647,N,12124.3630863,E,0.04,0.00,071222,0.0,E,D*3B
$GPGGA,091828.00,3110.7582647,N,12124.3630863,E,4,07,1.0,28.624,M,10.843,M,1.0,*7F
$GPGSA,A,3,04,08,09,16,18,26,27,31,,,,,2.1,1.1,1.8,1*2D
$GPGSV,2,1,08,04,51,268,44,08,43,212,45,09,27,306,41,16,60,004,46,1*67
$GPGSV,2,2,08,18,14,060,00,26,40,052,44,27,78,181,48,31,25,117,42,1*6B
$GPRMC,091829.00,A,3110.7582659,N,12124.3630852,E,0.02,0.00,071222,0.0,E,D*31
$GPGGA,091829.00,3110.7582659,N,12124.3630852,E,4,07,1.0,28.628,M,10.843,M,1.0,*7F
$GPGSA,A,3,04,08,09,16,18,26,27,31,,,,,2.1,1.1,1.8,1*2D
$GPGSV,2,1,08,04,51,268,44,08,43,212,46,09,27,306,41,16,60,004,46,1*64
$GPGSV,2,2,08,18,14,060,00,26,40,052,44,27,78,181,48,31,25,117,42,1*6B
$GPRMC,091830.00,A,3110.7582648,N,12124.3630851,E,0.02,0.00,071222,0.0,E,D*3A
$GPGGA,091830.00,3110.7582648,N,12124.3630851,E,4,07,1.0,28.628,M,10.843,M,1.0,*74
$GPGSA,A,3,04,08,09,16,18,26,27,31,,,,,2.1,1.1,1.8,1*2D
$GPGSV,2,1,08,04,51,268,44,08,43,212,45,09,27,306,41,16,60,004,46,1*67
$GPGSV,2,2,08,18,14,060,00,26,40,052,44,27,78,181,48,31,25,117,42,1*6B
$GPRMC,091831.00,A,3110.7582656,N,12124.3630870,E,0.03,0.00,071222,0.0,E,D*36
$GPGGA,091831.00,3110.7582656,N,12124.3630870,E,4,07,1.0,28.629,M,10.843,M,1.0,*78
$GPGSA,A,3,04,08,09,16,18,26,27,31,,,,,2.1,1.1,1.8,1*2D
$GPGSV,2,1,08,04,51,268,44,08,43,212,46,09,27,306,41,16,60,004,46,1*64
$GPGSV,2,2,08,18,14,060,00,26,40,052,44,27,78,181,48,31,25,117,42,1*6B
$GPRMC,091832.00,A,3110.7582645,N,12124.3630857,E,0.04,0.00,071222,0.0,E,D*35
$GPGGA,091832.00,3110.7582645,N,12124.3630857,E,4,07,1.0,28.628,M,10.843,M,1.0,*7D
$GPGSA,A,3,04,08,09,16,18,26,27,31,,,,,2.1,1.1,1.8,1*2D
$GPGSV,2,1,08,04,51,268,44,08,43,212,45,09,27,306,41,16,60,005,46,1*66
$GPGSV,2,2,08,18,14,060,00,26,40,052,44,27,78,181,48,31,25,117,42,1*6B
$GPRMC,091833.00,A,3110.7582633,N,12124.3630858,E,0.03,0.00,071222,0.0,E,D*3D
$GPGGA,091833.00,3110.7582633,N,12124.3630858,E,4,07,1.0,28.626,M,10.843,M,1.0,*7C
$GPGSA,A,3,04,08,09,16,18,26,27,31,,,,,2.1,1.1,1.8,1*2D
$GPGSV,2,1,08,04,51,268,44,08,43,212,45,09,27,305,41,16,60,005,46,1*65
$GPGSV,2,2,08,18,14,060,00,26,40,052,44,27,78,181,48,31,25,117,41,1*68
$GPRMC,091834.00,A,3110.7582630,N,12124.3630862,E,0.08,0.00,071222,0.0,E,D*3B
$GPGGA,091834.00,3110.7582630,N,12124.3630862,E,4,07,1.0,28.628,M,10.843,M,1.0,*7F
$GPGSA,A,3,04,08,09,16,18,26,27,31,,,,,2.1,1.1,1.8,1*2D
$GPGSV,2,1,08,04,51,268,44,08,43,212,45,09,27,305,41,16,60,005,46,1*65
$GPGSV,2,2,08,18,14,060,00,26,40,052,44,27,78,181,48,31,25,117,42,1*6B
$GPRMC,091835.00,A,3110.7582621,N,12124.3630856,E,0.03,0.00,071222,0.0,E,D*36
$GPGGA,091835.00,3110.7582621,N,12124.3630856,E,4,07,1.0,28.623,M,10.843,M,1.0,*72
$GPGSA,A,3,04,08,09,16,18,26,27,31,,,,,2.1,1.1,1.8,1*2D
$GPGSV,2,1,08,04,51,268,44,08,43,212,45,09,27,305,41,16,60,005,46,1*65
$GPGSV,2,2,08,18,14,060,00,26,40,052,43,27,78,181,48,31,25,117,42,1*6C
$GPRMC,091836.00,A,3110.7582624,N,12124.3630849,E,0.07,0.00,071222,0.0,E,D*3A
$GPGGA,091836.00,3110.7582624,N,12124.3630849,E,4,07,1.0,28.622,M,10.843,M,1.0,*7B
$GPGSA,A,3,04,08,09,16,18,26,27,31,,,,,2.1,1.1,1.8,1*2D
$GPGSV,2,1,08,04,51,268,44,08,43,212,45,09,27,305,41,16,60,005,46,1*65
$GPGSV,2,2,08,18,14,060,00,26,40,052,44,27,78,181,48,31,25,117,41,1*68
$GPRMC,091837.00,A,3110.7582617,N,12124.3630875,E,0.03,0.00,071222,0.0,E,D*30
$GPGGA,091837.00,3110.7582617,N,12124.3630875,E,4,07,1.0,28.624,M,10.843,M,1.0,*73
$GPGSA,A,3,04,08,09,16,18,26,27,31,,,,,2.1,1.1,1.8,1*2D
$GPGSV,2,1,08,04,51,268,44,08,43,212,45,09,27,305,41,16,60,005,46,1*65
$GPGSV,2,2,08,18,14,060,00,26,40,052,44,27,78,181,48,31,25,117,41,1*68
$GPRMC,091838.00,A,3110.7582640,N,12124.3630864,E,0.02,0.00,071222,0.0,E,D*3C
$GPGGA,091838.00,3110.7582640,N,12124.3630864,E,4,07,1.0,28.625,M,10.843,M,1.0,*7F
$GPGSA,A,3,04,08,09,16,18,26,27,31,,,,,2.1,1.1,1.8,1*2D
$GPGSV,2,1,08,04,51,268,44,08,43,212,45,09,27,305,41,16,60,005,46,1*65
$GPGSV,2,2,08,18,14,060,00,26,40,052,44,27,78,181,48,31,25,117,41,1*68
$GPRMC,091839.00,A,3110.7582632,N,12124.3630866,E,0.04,0.00,071222,0.0,E,D*3C
$GPGGA,091839.00,3110.7582632,N,12124.3630866,E,4,07,1.0,28.626,M,10.843,M,1.0,*7A
$GPGSA,A,3,04,08,09,16,18,26,27,31,,,,,2.1,1.1,1.8,1*2D
$GPGSV,2,1,08,04,51,268,45,08,43,212,45,09,27,305,41,16,60,005,46,1*64
$GPGSV,2,2,08,18,14,060,00,26,40,052,44,27,78,181,48,31,25,117,41,1*68
$GPRMC,091840.00,A,3110.7582642,N,12124.3630861,E,0.05,0.00,071222,0.0,E,D*33
$GPGGA,091840.00,3110.7582642,N,12124.3630861,E,4,07,1.0,28.624,M,10.843,M,1.0,*76
$GPGSA,A,3,04,08,09,16,18,26,27,31,,,,,2.1,1.1,1.8,1*2D
$GPGSV,2,1,08,04,51,268,45,08,43,212,45,09,27,305,42,16,60,005,46,1*67
$GPGSV,2,2,08,18,14,060,00,26,40,052,44,27,78,181,48,31,25,117,41,1*68
$GPRMC,091841.00,A,3110.7582639,N,12124.3630860,E,0.03,0.00,071222,0.0,E,D*39
$GPGGA,091841.00,3110.7582639,N,12124.3630860,E,4,07,1.0,28.630,M,10.843,M,1.0,*7F
$GPGSA,A,3,04,08,09,16,18,26,27,31,,,,,2.1,1.1,1.8,1*2D
$GPGSV,2,1,08,04,51,268,45,08,43,212,45,09,27,305,41,16,60,005,46,1*64
$GPGSV,2,2,08,18,14,060,00,26,40,052,44,27,78,181,48,31,25,117,41,1*68
$GPRMC,091842.00,A,3110.7582646,N,12124.3630861,E,0.08,0.00,071222,0.0,E,D*38
$GPGGA,091842.00,3110.7582646,N,12124.3630861,E,4,07,1.0,28.627,M,10.843,M,1.0,*73
$GPGSA,A,3,04,08,09,16,18,26,27,31,,,,,2.1,1.1,1.8,1*2D
$GPGSV,2,1,08,04,51,268,45,08,43,212,45,09,27,305,41,16,60,005,46,1*64
$GPGSV,2,2,08,18,14,060,00,26,40,052,44,27,78,181,48,31,25,117,41,1*68
$GPRMC,091843.00,A,3110.7582655,N,12124.3630874,E,0.03,0.00,071222,0.0,E,D*34
$GPGGA,091843.00,3110.7582655,N,12124.3630874,E,4,07,1.0,28.633,M,10.843,M,1.0,*71
$GPGSA,A,3,04,08,09,16,18,26,27,31,,,,,2.1,1.1,1.8,1*2D
$GPGSV,2,1,08,04,51,268,45,08,43,212,45,09,27,305,42,16,60,005,46,1*67
$GPGSV,2,2,08,18,14,060,00,26,40,052,44,27,78,181,48,31,25,117,41,1*68
$GPRMC,091844.00,A,3110.7582662,N,12124.3630865,E,0.05,0.00,071222,0.0,E,D*31
$GPGGA,091844.00,3110.7582662,N,12124.3630865,E,4,07,1.0,28.630,M,10.843,M,1.0,*71
$GPGSA,A,3,04,08,09,16,18,26,27,31,,,,,2.1,1.1,1.8,1*2D
$GPGSV,2,1,08,04,51,268,45,08,43,212,45,09,27,305,42,16,60,005,46,1*67
$GPGSV,2,2,08,18,14,060,00,26,40,052,44,27,78,181,48,31,25,117,41,1*68
$GPRMC,091845.00,A,3110.7582648,N,12124.3630871,E,0.03,0.00,071222,0.0,E,D*3B
$GPGGA,091845.00,3110.7582648,N,12124.3630871,E,4,07,1.0,28.626,M,10.843,M,1.0,*7A
$GPGSA,A,3,04,08,09,16,18,26,27,31,,,,,2.1,1.1,1.8,1*2D
$GPGSV,2,1,08,04,51,268,45,08,43,212,45,09,27,305,42,16,60,005,46,1*67
$GPGSV,2,2,08,18,14,060,00,26,40,052,44,27,78,181,48,31,25,117,41,1*68
$GPRMC,091846.00,A,3110.7582653,N,12124.3630866,E,0.03,0.00,071222,0.0,E,D*34
$GPGGA,091846.00,3110.7582653,N,12124.3630866,E,4,07,1.0,28.629,M,10.843,M,1.0,*7A
$GPGSA,A,3,04,08,09,16,18,26,27,31,,,,,2.1,1.1,1.8,1*2D
$GPGSV,2,1,08,04,51,268,45,08,43,212,45,09,27,305,41,16,60,005,46,1*64
$GPGSV,2,2,08,18,14,060,00,26,40,052,44,27,78,181,48,31,25,117,41,1*68
$GPRMC,091847.00,A,3110.7582646,N,12124.3630847,E,0.04,0.00,071222,0.0,E,D*35
$GPGGA,091847.00,3110.7582646,N,12124.3630847,E,4,07,1.0,28.631,M,10.843,M,1.0,*75
$GPGSA,A,3,04,08,09,16,18,26,27,31,,,,,2.1,1.1,1.8,1*2D
$GPGSV,2,1,08,04,51,268,45,08,43,212,45,09,27,305,41,16,60,005,46,1*64
$GPGSV,2,2,08,18,14,060,00,26,40,052,44,27,78,181,48,31,25,117,41,1*68
$GPRMC,091848.00,A,3110.7582642,N,12124.3630859,E,0.04,0.00,071222,0.0,E,D*31
$GPGGA,091848.00,3110.7582642,N,12124.3630859,E,4,07,1.0,28.624,M,10.843,M,1.0,*75
$GPGSA,A,3,04,08,09,16,18,26,27,31,,,,,2.1,1.1,1.8,1*2D
$GPGSV,2,1,08,04,51,268,45,08,43,212,45,09,27,305,41,16,60,005,46,1*64
$GPGSV,2,2,08,18,14,060,00,26,40,052,44,27,78,181,48,31,25,117,41,1*68
$GPRMC,091849.00,A,3110.7582626,N,12124.3630865,E,0.02,0.00,071222,0.0,E,D*3B
$GPGGA,091849.00,3110.7582626,N,12124.3630865,E,4,07,1.0,28.632,M,10.843,M,1.0,*7E
$GPGSA,A,3,04,08,09,16,18,26,27,31,,,,,2.1,1.1,1.8,1*2D
$GPGSV,2,1,08,04,51,268,45,08,43,212,45,09,27,305,41,16,60,005,46,1*64
$GPGSV,2,2,08,18,14,060,00,26,40,052,44,27,78,181,48,31,25,117,41,1*68
$GPRMC,091850.00,A,3110.7582628,N,12124.3630855,E,0.01,0.00,071222,0.0,E,D*3D
$GPGGA,091850.00,3110.7582628,N,12124.3630855,E,4,07,1.0,28.628,M,10.843,M,1.0,*70
$GPGSA,A,3,04,08,09,16,18,26,27,31,,,,,2.1,1.1,1.8,1*2D
$GPGSV,2,1,08,04,51,268,45,08,43,212,45,09,27,305,41,16,60,005,46,1*64
$GPGSV,2,2,08,18,14,060,00,26,40,052,44,27,78,181,48,31,25,117,41,1*68
$GPRMC,091851.00,A,3110.7582641,N,12124.3630860,E,0.03,0.00,071222,0.0,E,D*37
$GPGGA,091851.00,3110.7582641,N,12124.3630860,E,4,07,1.0,28.627,M,10.843,M,1.0,*77
$GPGSA,A,3,04,08,09,16,18,26,27,31,,,,,2.1,1.1,1.8,1*2D
$GPGSV,2,1,08,04,51,268,45,08,43,212,45,09,27,305,41,16,60,005,46,1*64
$GPGSV,2,2,08,18,14,060,00,26,40,052,44,27,78,181,48,31,25,117,41,1*68
$GPRMC,091852.00,A,3110.7582640,N,12124.3630871,E,0.03,0.00,071222,0.0,E,D*35
$GPGGA,091852.00,3110.7582640,N,12124.3630871,E,4,07,1.0,28.628,M,10.843,M,1.0,*7A
$GPGSA,A,3,04,08,09,16,18,26,27,31,,,,,2.1,1.1,1.8,1*2D
$GPGSV,2,1,08,04,51,268,45,08,43,212,46,09,27,305,42,16,60,005,46,1*64
$GPGSV,2,2,08,18,14,060,00,26,40,052,44,27,78,181,48,31,25,117,41,1*68
$GPRMC,091853.00,A,3110.7582655,N,12124.3630865,E,0.01,0.00,071222,0.0,E,D*37
$GPGGA,091853.00,3110.7582655,N,12124.3630865,E,4,07,1.0,28.625,M,10.843,M,1.0,*77
$GPGSA,A,3,04,08,09,16,18,26,27,31,,,,,2.1,1.1,1.8,1*2D
$GPGSV,2,1,08,04,51,268,45,08,43,212,45,09,27,305,41,16,60,005,46,1*64
$GPGSV,2,2,08,18,14,060,00,26,40,052,44,27,78,181,47,31,25,117,41,1*67
$GPRMC,091854.00,A,3110.7582653,N,12124.3630859,E,0.05,0.00,071222,0.0,E,D*3D
$GPGGA,091854.00,3110.7582653,N,12124.3630859,E,4,07,1.0,28.628,M,10.843,M,1.0,*74
$GPGSA,A,3,04,08,09,16,18,26,27,31,,,,,2.1,1.1,1.8,1*2D
$GPGSV,2,1,08,04,51,268,45,08,43,212,45,09,27,305,41,16,60,005,46,1*64
$GPGSV,2,2,08,18,14,060,00,26,40,052,44,27,78,181,48,31,25,117,41,1*68
$GPRMC,091855.00,A,3110.7582644,N,12124.3630869,E,0.02,0.00,071222,0.0,E,D*3E
$GPGGA,091855.00,3110.7582644,N,12124.3630869,E,4,07,1.0,28.628,M,10.843,M,1.0,*70
$GPGSA,A,3,04,08,09,16,18,26,27,31,,,,,2.1,1.1,1.8,1*2D
$GPGSV,2,1,08,04,51,268,45,08,43,212,46,09,27,305,41,16,60,005,46,1*67
$GPGSV,2,2,08,18,14,060,00,26,40,052,44,27,78,181,48,31,25,117,41,1*68
$GPRMC,091856.00,A,3110.7582641,N,12124.3630856,E,0.06,0.00,071222,0.0,E,D*30
$GPGGA,091856.00,3110.7582641,N,12124.3630856,E,4,07,1.0,28.623,M,10.843,M,1.0,*71
$GPGSA,A,3,04,08,09,16,18,26,27,31,,,,,2.1,1.1,1.8,1*2D
$GPGSV,2,1,08,04,51,268,45,08,43,212,46,09,27,305,41,16,60,005,46,1*67
$GPGSV,2,2,08,18,14,060,00,26,40,052,44,27,78,181,48,31,25,117,41,1*68
$GPRMC,091857.00,A,3110.7582637,N,12124.3630880,E,0.05,0.00,071222,0.0,E,D*38
$GPGGA,091857.00,3110.7582637,N,12124.3630880,E,4,07,1.0,28.630,M,10.843,M,1.0,*78
$GPGSA,A,3,04,08,09,16,18,26,27,31,,,,,2.1,1.1,1.8,1*2D
$GPGSV,2,1,08,04,51,268,45,08,43,212,46,09,27,305,41,16,60,005,46,1*67
$GPGSV,2,2,08,18,14,060,00,26,40,052,44,27,78,181,48,31,25,117,41,1*68
$GPRMC,091858.00,A,3110.7582648,N,12124.3630855,E,0.04,0.00,071222,0.0,E,D*36
$GPGGA,091858.00,3110.7582648,N,12124.3630855,E,4,07,1.0,28.626,M,10.843,M,1.0,*70
$GPGSA,A,3,04,08,09,16,18,26,27,31,,,,,2.1,1.1,1.8,1*2D
$GPGSV,2,1,08,04,51,268,45,08,43,212,45,09,27,305,41,16,60,005,46,1*64
$GPGSV,2,2,08,18,14,060,00,26,40,052,44,27,78,181,48,31,25,117,42,1*6B
$GPRMC,091859.00,A,3110.7582665,N,12124.3630862,E,0.01,0.00,071222,0.0,E,D*39
$GPGGA,091859.00,3110.7582665,N,12124.3630862,E,4,07,1.0,28.635,M,10.843,M,1.0,*78
$GPGSA,A,3,04,08,09,16,18,26,27,31,,,,,2.1,1.1,1.8,1*2D
$GPGSV,2,1,08,04,51,267,45,08,43,212,46,09,27,305,41,16,60,005,46,1*68
$GPGSV,2,2,08,18,14,060,00,26,40,052,44,27,78,181,48,31,25,117,42,1*6B
$GPRMC,091900.00,A,3110.7582649,N,12124.3630863,E,0.05,0.00,071222,0.0,E,D*3F
$GPGGA,091900.00,3110.7582649,N,12124.3630863,E,4,07,1.0,28.630,M,10.843,M,1.0,*7F
$GPGSA,A,3,04,08,09,16,18,26,27,31,,,,,2.1,1.1,1.8,1*2D
$GPGSV,2,1,08,04,51,267,45,08,43,212,46,09,27,305,41,16,60,005,46,1*68
$GPGSV,2,2,08,18,14,060,00,26,40,052,44,27,78,181,48,31,25,117,42,1*6B
$GPRMC,091901.00,A,3110.7582649,N,12124.3630868,E,0.01,0.00,071222,0.0,E,D*31
$GPGGA,091901.00,3110.7582649,N,12124.3630868,E,4,07,1.0,28.627,M,10.843,M,1.0,*73
$GPGSA,A,3,04,08,09,16,18,26,27,31,,,,,2.1,1.1,1.8,1*2D
$GPGSV,2,1,08,04,51,267,45,08,43,212,45,09,27,305,41,16,60,005,46,1*6B
$GPGSV,2,2,08,18,14,060,00,26,40,052,44,27,78,181,48,31,25,117,42,1*6B
$GPRMC,091902.00,A,3110.7582647,N,12124.3630868,E,0.00,0.00,071222,0.0,E,D*3D
$GPGGA,091902.00,3110.7582647,N,12124.3630868,E,4,07,1.0,28.631,M,10.843,M,1.0,*79
$GPGSA,A,3,04,08,09,16,18,26,27,31,,,,,2.1,1.1,1.8,1*2D
$GPGSV,2,1,08,04,51,267,46,08,43,212,46,09,27,305,41,16,60,005,46,1*6B
$GPGSV,2,2,08,18,14,060,00,26,40,052,44,27,78,181,48,31,25,117,42,1*6B
$GPRMC,091903.00,A,3110.7582638,N,12124.3630863,E,0.03,0.00,071222,0.0,E,D*3C
$GPGGA,091903.00,3110.7582638,N,12124.3630863,E,4,07,1.0,28.628,M,10.843,M,1.0,*73
$GPGSA,A,3,04,08,09,16,18,26,27,31,,,,,2.1,1.1,1.8,1*2D
$GPGSV,2,1,08,04,51,267,46,08,43,212,46,09,27,305,40,16,60,005,46,1*6A
$GPGSV,2,2,08,18,14,060,00,26,40,052,44,27,78,181,48,31,25,117,41,1*68
$GPRMC,091904.00,A,3110.7582629,N,12124.3630876,E,0.03,0.00,071222,0.0,E,D*3F
$GPGGA,091904.00,3110.7582629,N,12124.3630876,E,4,07,1.0,28.629,M,10.843,M,1.0,*71
$GPGSA,A,3,04,08,09,16,18,26,27,31,,,,,2.1,1.1,1.8,1*2D
$GPGSV,2,1,08,04,51,267,45,08,43,212,46,09,27,305,41,16,60,005,46,1*68
$GPGSV,2,2,08,18,14,060,00,26,40,052,44,27,78,181,48,31,25,117,41,1*68
$GPRMC,091905.00,A,3110.7582650,N,12124.3630862,E,0.03,0.00,071222,0.0,E,D*35
$GPGGA,091905.00,3110.7582650,N,12124.3630862,E,4,07,1.0,28.629,M,10.843,M,1.0,*7B
$GPGSA,A,3,04,08,09,16,18,26,27,31,,,,,2.1,1.1,1.8,1*2D
$GPGSV,2,1,08,04,51,267,45,08,43,212,46,09,27,305,41,16,60,005,46,1*68
$GPGSV,2,2,08,18,14,060,00,26,40,052,44,27,78,181,48,31,25,117,42,1*6B
$GPRMC,091906.00,A,3110.7582653,N,12124.3630861,E,0.03,0.00,071222,0.0,E,D*36
$GPGGA,091906.00,3110.7582653,N,12124.3630861,E,4,07,1.0,28.628,M,10.843,M,1.0,*79
$GPGSA,A,3,04,08,09,16,18,26,27,31,,,,,2.1,1.1,1.8,1*2D
$GPGSV,2,1,08,04,51,267,45,08,43,212,46,09,28,305,41,16,60,005,46,1*67
$GPGSV,2,2,08,18,14,060,00,26,40,052,44,27,78,181,48,31,25,117,42,1*6B
$GPRMC,091907.00,A,3110.7582661,N,12124.3630866,E,0.06,0.00,071222,0.0,E,D*34
$GPGGA,091907.00,3110.7582661,N,12124.3630866,E,4,07,1.0,28.629,M,10.843,M,1.0,*7F
$GPGSA,A,3,04,08,09,16,18,26,27,31,,,,,2.1,1.1,1.8,1*2D
$GPGSV,2,1,08,04,51,267,45,08,43,212,46,09,28,305,41,16,60,005,46,1*67
$GPGSV,2,2,08,18,14,060,00,26,40,052,44,27,78,181,48,31,25,117,42,1*6B
$GPRMC,091908.00,A,3110.7582650,N,12124.3630872,E,0.07,0.00,071222,0.0,E,D*3D
$GPGGA,091908.00,3110.7582650,N,12124.3630872,E,4,07,1.0,28.633,M,10.843,M,1.0,*7C
$GPGSA,A,3,04,08,09,16,18,26,27,31,,,,,2.1,1.1,1.8,1*2D
$GPGSV,2,1,08,04,51,267,45,08,43,212,45,09,28,305,41,16,60,005,46,1*64
$GPGSV,2,2,08,18,14,060,00,26,40,052,44,27,78,181,48,31,25,117,42,1*6B
$GPRMC,091909.00,A,3110.7582672,N,12124.3630872,E,0.02,0.00,071222,0.0,E,D*39
$GPGGA,091909.00,3110.7582672,N,12124.3630872,E,4,07,1.0,28.627,M,10.843,M,1.0,*78
$GPGSA,A,3,04,08,09,16,18,26,27,31,,,,,2.1,1.1,1.8,1*2D
$GPGSV,2,1,08,04,51,267,45,08,43,212,46,09,28,305,41,16,60,005,46,1*67
$GPGSV,2,2,08,18,14,060,00,26,40,052,44,27,78,181,48,31,25,117,42,1*6B
$GPRMC,091910.00,A,3110.7582668,N,12124.3630867,E,0.02,0.00,071222,0.0,E,D*3E
$GPGGA,091910.00,3110.7582668,N,12124.3630867,E,4,07,1.0,28.632,M,10.843,M,1.0,*7B
$GPGSA,A,3,04,08,09,16,18,26,27,31,,,,,2.1,1.1,1.8,1*2D
$GPGSV,2,1,08,04,51,267,45,08,43,212,46,09,28,305,41,16,60,005,46,1*67
$GPGSV,2,2,08,18,14,060,00,26,40,052,44,27,78,181,48,31,25,117,42,1*6B
$GPRMC,091911.00,A,3110.7582656,N,12124.3630869,E,0.02,0.00,071222,0.0,E,D*3C
$GPGGA,091911.00,3110.7582656,N,12124.3630869,E,4,07,1.0,28.626,M,10.843,M,1.0,*7C
$GPGSA,A,3,04,08,09,16,18,26,27,31,,,,,2.1,1.1,1.8,1*2D
$GPGSV,2,1,08,04,51,267,45,08,43,212,46,09,28,305,41,16,60,005,46,1*67
$GPGSV,2,2,08,18,14,060,00,26,40,052,44,27,78,181,48,31,25,117,42,1*6B
$GPRMC,091912.00,A,3110.7582654,N,12124.3630870,E,0.03,0.00,071222,0.0,E,D*34
$GPGGA,091912.00,3110.7582654,N,12124.3630870,E,4,07,1.0,28.627,M,10.843,M,1.0,*74
$GPGSA,A,3,04,08,09,16,18,26,27,31,,,,,2.1,1.1,1.8,1*2D
$GPGSV,2,1,08,04,51,267,45,08,43,212,46,09,28,305,41,16,59,005,46,1*6D
$GPGSV,2,2,08,18,14,060,00,26,40,052,44,27,78,181,48,31,25,117,42,1*6B
$GPRMC,091913.00,A,3110.7582659,N,12124.3630865,E,0.03,0.00,071222,0.0,E,D*3C
$GPGGA,091913.00,3110.7582659,N,12124.3630865,E,4,07,1.0,28.627,M,10.843,M,1.0,*7C
$GPGSA,A,3,04,08,09,16,18,26,27,31,,,,,2.1,1.1,1.8,1*2D
$GPGSV,2,1,08,04,51,267,44,08,43,212,45,09,28,305,41,16,59,005,46,1*6F
$GPGSV,2,2,08,18,14,060,00,26,40,052,44,27,78,181,48,31,25,117,42,1*6B
$GPRMC,091914.00,A,3110.7582648,N,12124.3630881,E,0.02,0.00,071222,0.0,E,D*30
$GPGGA,091914.00,3110.7582648,N,12124.3630881,E,4,07,1.0,28.630,M,10.843,M,1.0,*77
$GPGSA,A,3,04,08,09,16,18,26,27,31,,,,,2.1,1.1,1.8,1*2D
$GPGSV,2,1,08,04,51,267,44,08,43,212,45,09,28,305,41,16,59,005,46,1*6F
$GPGSV,2,2,08,18,14,060,00,26,40,052,44,27,78,181,48,31,25,117,42,1*6B
$GPRMC,091915.00,A,3110.7582654,N,12124.3630876,E,0.08,0.00,071222,0.0,E,D*3E
$GPGGA,091915.00,3110.7582654,N,12124.3630876,E,4,07,1.0,28.633,M,10.843,M,1.0,*70
$GPGSA,A,3,04,08,09,16,18,26,27,31,,,,,2.1,1.1,1.8,1*2D
$GPGSV,2,1,08,04,51,267,44,08,43,212,45,09,28,305,41,16,59,005,46,1*6F
$GPGSV,2,2,08,18,14,060,00,26,40,052,44,27,78,181,48,31,25,117,42,1*6B
$GPRMC,091916.00,A,3110.7582657,N,12124.3630872,E,0.03,0.00,071222,0.0,E,D*31
$GPGGA,091916.00,3110.7582657,N,12124.3630872,E,4,07,1.0,28.633,M,10.843,M,1.0,*74
$GPGSA,A,3,04,08,09,16,18,26,27,31,,,,,2.1,1.1,1.8,1*2D
$GPGSV,2,1,08,04,51,267,44,08,43,212,45,09,28,305,40,16,59,005,46,1*6E
$GPGSV,2,2,08,18,14,060,00,26,40,052,44,27,78,181,48,31,25,117,42,1*6B
$GPRMC,091917.00,A,3110.7582657,N,12124.3630873,E,0.03,0.00,071222,0.0,E,D*31
$GPGGA,091917.00,3110.7582657,N,12124.3630873,E,4,07,1.0,28.632,M,10.843,M,1.0,*75
$GPGSA,A,3,04,08,09,16,18,26,27,31,,,,,2.1,1.1,1.8,1*2D
$GPGSV,2,1,08,04,51,267,44,08,43,212,45,09,28,305,40,16,59,005,46,1*6E
$GPGSV,2,2,08,18,14,060,00,26,40,052,44,27,78,181,48,31,25,117,42,1*6B
$GPRMC,091918.00,A,3110.7582662,N,12124.3630870,E,0.03,0.00,071222,0.0,E,D*3B
$GPGGA,091918.00,3110.7582662,N,12124.3630870,E,4,07,1.0,28.632,M,10.843,M,1.0,*7F
$GPGSA,A,3,04,08,09,16,18,26,27,31,,,,,2.1,1.1,1.8,1*2D
$GPGSV,2,1,08,04,51,267,44,08,43,212,45,09,28,305,40,16,59,005,46,1*6E
$GPGSV,2,2,08,18,14,060,00,26,40,052,44,27,78,181,48,31,25,117,42,1*6B
$GPRMC,091919.00,A,3110.7582665,N,12124.3630869,E,0.01,0.00,071222,0.0,E,D*37
$GPGGA,091919.00,3110.7582665,N,12124.3630869,E,4,07,1.0,28.632,M,10.843,M,1.0,*71
$GPGSA,A,3,04,08,09,16,18,26,27,31,,,,,2.1,1.1,1.8,1*2D
$GPGSV,2,1,08,04,51,267,44,08,43,212,45,09,28,305,40,16,59,005,46,1*6E
$GPGSV,2,2,08,18,14,060,00,26,40,052,44,27,78,181,48,31,25,117,42,1*6B
$GPRMC,091920.00,A,3110.7582637,N,12124.3630886,E,0.02,0.00,071222,0.0,E,D*38
$GPGGA,091920.00,3110.7582637,N,12124.3630886,E,4,07,1.0,28.629,M,10.843,M,1.0,*77
$GPGSA,A,3,04,08,09,16,18,26,27,31,,,,,2.1,1.1,1.8,1*2D
$GPGSV,2,1,08,04,51,267,44,08,43,212,45,09,28,305,40,16,59,005,46,1*6E
$GPGSV,2,2,08,18,14,060,00,26,40,052,44,27,78,181,48,31,25,117,42,1*6B
$GPRMC,091921.00,A,3110.7582642,N,12124.3630867,E,0.04,0.00,071222,0.0,E,D*32
$GPGGA,091921.00,3110.7582642,N,12124.3630867,E,4,07,1.0,28.634,M,10.843,M,1.0,*77
$GPGSA,A,3,04,08,09,16,18,26,27,31,,,,,2.1,1.1,1.8,1*2D
$GPGSV,2,1,08,04,51,267,45,08,43,212,45,09,28,305,40,16,59,005,46,1*6F
$GPGSV,2,2,08,18,14,060,00,26,40,052,44,27,78,181,48,31,25,117,41,1*68
$GPRMC,091922.00,A,3110.7582649,N,12124.3630871,E,0.01,0.00,071222,0.0,E,D*38
$GPGGA,091922.00,3110.7582649,N,12124.3630871,E,4,07,1.0,28.628,M,10.843,M,1.0,*75
$GPGSA,A,3,04,08,09,16,18,26,27,31,,,,,2.1,1.1,1.8,1*2D
$GPGSV,2,1,08,04,51,267,45,08,43,212,45,09,28,305,40,16,59,005,46,1*6F
$GPGSV,2,2,08,18,14,060,00,26,40,052,44,27,78,181,48,31,25,117,41,1*68
$GPRMC,091923.00,A,3110.7582668,N,12124.3630889,E,0.04,0.00,071222,0.0,E,D*38
$GPGGA,091923.00,3110.7582668,N,12124.3630889,E,4,07,1.0,28.628,M,10.843,M,1.0,*70
$GPGSA,A,3,04,08,09,16,18,26,27,31,,,,,2.1,1.1,1.8,1*2D
$GPGSV,2,1,08,04,51,267,45,08,43,212,45,09,28,305,40,16,59,005,46,1*6F
$GPGSV,2,2,08,18,14,060,00,26,40,052,44,27,78,181,48,31,25,117,41,1*68
$GPRMC,091924.00,A,3110.7582669,N,12124.3630865,E,0.03,0.00,071222,0.0,E,D*3B
$GPGGA,091924.00,3110.7582669,N,12124.3630865,E,4,07,1.0,28.628,M,10.843,M,1.0,*74
$GPGSA,A,3,04,08,09,16,18,26,27,31,,,,,2.1,1.1,1.8,1*2D
$GPGSV,2,1,08,04,51,267,45,08,43,212,45,09,28,305,40,16,59,005,46,1*6F
$GPGSV,2,2,08,18,14,060,00,26,40,052,44,27,78,181,48,31,25,117,42,1*6B
$GPRMC,091925.00,A,3110.7582638,N,12124.3630883,E,0.09,0.00,071222,0.0,E,D*3C
$GPGGA,091925.00,3110.7582638,N,12124.3630883,E,4,07,1.0,28.629,M,10.843,M,1.0,*78
$GPGSA,A,3,04,08,09,16,18,26,27,31,,,,,2.1,1.1,1.8,1*2D
$GPGSV,2,1,08,04,51,267,44,08,43,212,45,09,28,305,40,16,59,005,46,1*6E
$GPGSV,2,2,08,18,14,060,00,26,40,052,44,27,78,181,48,31,25,117,41,1*68
$GPRMC,091926.00,A,3110.7582662,N,12124.3630878,E,0.02,0.00,071222,0.0,E,D*3F
$GPGGA,091926.00,3110.7582662,N,12124.3630878,E,4,07,1.0,28.633,M,10.843,M,1.0,*7B
$GPGSA,A,3,04,08,09,16,18,26,27,31,,,,,2.1,1.1,1.8,1*2D
$GPGSV,2,1,08,04,51,267,44,08,43,212,45,09,28,305,40,16,59,005,46,1*6E
$GPGSV,2,2,08,18,14,060,00,26,40,052,44,27,78,181,48,31,25,117,41,1*68
$GPRMC,091927.00,A,3110.7582655,N,12124.3630853,E,0.00,0.00,071222,0.0,E,D*31
$GPGGA,091927.00,3110.7582655,N,12124.3630853,E,4,07,1.0,28.631,M,10.843,M,1.0,*75
$GPGSA,A,3,04,08,09,16,18,26,27,31,,,,,2.1,1.1,1.8,1*2D
$GPGSV,2,1,08,04,51,267,44,08,43,212,45,09,28,305,40,16,59,005,46,1*6E
$GPGSV,2,2,08,18,14,060,00,26,40,052,44,27,78,181,48,31,25,117,42,1*6B
$GPRMC,091928.00,A,3110.7582640,N,12124.3630872,E,0.03,0.00,071222,0.0,E,D*3A
$GPGGA,091928.00,3110.7582640,N,12124.3630872,E,4,07,1.0,28.632,M,10.843,M,1.0,*7E
$GPGSA,A,3,04,08,09,16,18,26,27,31,,,,,2.1,1.1,1.8,1*2D
$GPGSV,2,1,08,04,51,267,44,08,43,212,45,09,28,305,40,16,59,005,46,1*6E
$GPGSV,2,2,08,18,14,060,00,26,40,052,44,27,78,181,48,31,25,117,41,1*68
$GPRMC,091929.00,A,3110.7582651,N,12124.3630876,E,0.01,0.00,071222,0.0,E,D*3D
$GPGGA,091929.00,3110.7582651,N,12124.3630876,E,4,07,1.0,28.625,M,10.843,M,1.0,*7D
$GPGSA,A,3,04,08,09,16,18,26,27,31,,,,,2.1,1.1,1.8,1*2D
$GPGSV,2,1,08,04,51,267,44,08,43,212,45,09,28,305,40,16,59,005,46,1*6E
$GPGSV,2,2,08,18,14,060,00,26,40,052,44,27,78,181,48,31,25,117,41,1*68
$GPRMC,091930.00,A,3110.7582661,N,12124.3630867,E,0.06,0.00,071222,0.0,E,D*31
$GPGGA,091930.00,3110.7582661,N,12124.3630867,E,4,07,1.0,28.631,M,10.843,M,1.0,*73
$GPGSA,A,3,04,08,09,16,18,26,27,31,,,,,2.1,1.1,1.8,1*2D
$GPGSV,2,1,08,04,51,267,44,08,43,212,45,09,28,305,40,16,59,005,46,1*6E
$GPGSV,2,2,08,18,14,060,00,26,40,052,44,27,78,181,48,31,25,117,41,1*68
$GPRMC,091931.00,A,3110.7582655,N,12124.3630864,E,0.03,0.00,071222,0.0,E,D*31
$GPGGA,091931.00,3110.7582655,N,12124.3630864,E,4,07,1.0,28.625,M,10.843,M,1.0,*73
$GPGSA,A,3,04,08,09,16,18,26,27,31,,,,,2.1,1.1,1.8,1*2D
$GPGSV,2,1,08,04,51,267,44,08,43,212,45,09,28,305,40,16,59,005,46,1*6E
$GPGSV,2,2,08,18,14,060,00,26,40,052,44,27,78,181,48,31,25,117,41,1*68
$GPRMC,091932.00,A,3110.7582639,N,12124.3630860,E,0.03,0.00,071222,0.0,E,D*3C
$GPGGA,091932.00,3110.7582639,N,12124.3630860,E,4,07,1.0,28.631,M,10.843,M,1.0,*7B
$GPGSA,A,3,04,08,09,16,18,26,27,31,,,,,2.1,1.1,1.8,1*2D
$GPGSV,2,1,08,04,51,267,44,08,43,212,46,09,28,305,40,16,59,005,46,1*6D
$GPGSV,2,2,08,18,14,060,00,26,40,052,44,27,78,181,47,31,25,117,41,1*67
$GPRMC,091933.00,A,3110.7582656,N,12124.3630862,E,0.01,0.00,071222,0.0,E,D*34
$GPGGA,091933.00,3110.7582656,N,12124.3630862,E,4,07,1.0,28.627,M,10.843,M,1.0,*76
$GPGSA,A,3,04,08,09,16,18,26,27,31,,,,,2.1,1.1,1.8,1*2D
$GPGSV,2,1,08,04,51,267,45,08,43,212,46,09,28,305,40,16,59,005,46,1*6C
$GPGSV,2,2,08,18,14,059,00,26,40,052,44,27,78,181,47,31,25,117,42,1*6E
$GPRMC,091934.00,A,3110.7582650,N,12124.3630867,E,0.02,0.00,071222,0.0,E,D*33
$GPGGA,091934.00,3110.7582650,N,12124.3630867,E,4,07,1.0,28.630,M,10.843,M,1.0,*74
$GPGSA,A,3,04,08,09,16,18,26,27,31,,,,,2.1,1.1,1.8,1*2D
$GPGSV,2,1,08,04,51,267,45,08,43,212,46,09,28,305,40,16,59,005,46,1*6C
$GPGSV,2,2,08,18,14,059,00,26,40,052,44,27,78,181,48,31,25,117,42,1*61
$GPRMC,091935.00,A,3110.7582644,N,12124.3630868,E,0.02,0.00,071222,0.0,E,D*38
$GPGGA,091935.00,3110.7582644,N,12124.3630868,E,4,07,1.0,28.630,M,10.843,M,1.0,*7F
$GPGSA,A,3,04,08,09,16,18,26,27,31,,,,,2.1,1.1,1.8,1*2D
$GPGSV,2,1,08,04,51,267,45,08,43,212,45,09,28,305,40,16,59,005,46,1*6F
$GPGSV,2,2,08,18,14,059,00,26,40,052,44,27,78,181,47,31,25,117,42,1*6E
$GPRMC,091936.00,A,3110.7582656,N,12124.3630861,E,0.02,0.00,071222,0.0,E,D*31
$GPGGA,091936.00,3110.7582656,N,12124.3630861,E,4,07,1.0,28.628,M,10.843,M,1.0,*7F
$GPGSA,A,3,04,08,09,16,18,26,27,31,,,,,2.1,1.1,1.8,1*2D
$GPGSV,2,1,08,04,51,267,45,08,43,212,45,09,28,305,40,16,59,005,46,1*6F
$GPGSV,2,2,08,18,14,059,00,26,40,052,44,27,78,181,47,31,25,117,41,1*6D
$GPRMC,091937.00,A,3110.7582657,N,12124.3630860,E,0.02,0.00,071222,0.0,E,D*30
$GPGGA,091937.00,3110.7582657,N,12124.3630860,E,4,07,1.0,28.637,M,10.843,M,1.0,*70
$GPGSA,A,3,04,08,09,16,18,26,27,31,,,,,2.1,1.1,1.8,1*2D
$GPGSV,2,1,08,04,51,267,45,08,43,212,45,09,28,305,40,16,59,005,46,1*6F
$GPGSV,2,2,08,18,14,059,00,26,40,052,44,27,78,181,47,31,25,117,41,1*6D
$GPRMC,091938.00,A,3110.7582660,N,12124.3630860,E,0.07,0.00,071222,0.0,E,D*3E
$GPGGA,091938.00,3110.7582660,N,12124.3630860,E,4,07,1.0,28.630,M,10.843,M,1.0,*7C
$GPGSA,A,3,04,08,09,16,18,26,27,31,,,,,2.1,1.1,1.8,1*2D
$GPGSV,2,1,08,04,51,267,45,08,43,212,45,09,28,305,40,16,59,005,46,1*6F
$GPGSV,2,2,08,18,14,059,00,26,40,052,44,27,78,181,47,31,25,117,41,1*6D
$GPRMC,091939.00,A,3110.7582660,N,12124.3630865,E,0.02,0.00,071222,0.0,E,D*3F
$GPGGA,091939.00,3110.7582660,N,12124.3630865,E,4,07,1.0,28.635,M,10.843,M,1.0,*7D
$GPGSA,A,3,04,08,09,16,18,26,27,31,,,,,2.1,1.1,1.8,1*2D
$GPGSV,2,1,08,04,51,267,45,08,43,212,45,09,28,305,40,16,59,005,46,1*6F
$GPGSV,2,2,08,18,14,059,00,26,40,052,44,27,78,181,47,31,25,117,42,1*6E
$GPRMC,091940.00,A,3110.7582661,N,12124.3630860,E,0.02,0.00,071222,0.0,E,D*35
$GPGGA,091940.00,3110.7582661,N,12124.3630860,E,4,07,1.0,28.634,M,10.843,M,1.0,*76
$GPGSA,A,3,04,08,09,16,18,26,27,31,,,,,2.1,1.1,1.8,1*2D
$GPGSV,2,1,08,04,51,267,45,08,43,212,45,09,28,305,40,16,59,005,46,1*6F
$GPGSV,2,2,08,18,14,059,00,26,40,052,44,27,79,181,47,31,25,117,42,1*6F
$GPRMC,091941.00,A,3110.7582644,N,12124.3630853,E,0.03,0.00,071222,0.0,E,D*32
$GPGGA,091941.00,3110.7582644,N,12124.3630853,E,4,07,1.0,28.626,M,10.843,M,1.0,*73
$GPGSA,A,3,04,08,09,16,18,26,27,31,,,,,2.1,1.1,1.8,1*2D
$GPGSV,2,1,08,04,51,267,45,08,43,212,45,09,28,305,40,16,59,005,46,1*6F
$GPGSV,2,2,08,18,14,059,00,26,40,052,44,27,79,181,48,31,25,117,42,1*60
$GPRMC,091942.00,A,3110.7582667,N,12124.3630863,E,0.04,0.00,071222,0.0,E,D*34
$GPGGA,091942.00,3110.7582667,N,12124.3630863,E,4,07,1.0,28.638,M,10.843,M,1.0,*7D
$GPGSA,A,3,04,08,09,16,18,26,27,31,,,,,2.1,1.1,1.8,1*2D
$GPGSV,2,1,08,04,51,267,46,08,43,212,46,09,28,305,40,16,59,005,46,1*6F
$GPGSV,2,2,08,18,14,059,00,26,40,052,44,27,79,181,48,31,25,117,42,1*60
$GPRMC,091943.00,A,3110.7582666,N,12124.3630862,E,0.01,0.00,071222,0.0,E,D*30
$GPGGA,091943.00,3110.7582666,N,12124.3630862,E,4,07,1.0,28.633,M,10.843,M,1.0,*77
$GPGSA,A,3,04,08,09,16,18,26,27,31,,,,,2.1,1.1,1.8,1*2D
$GPGSV,2,1,08,04,51,267,46,08,43,212,46,09,28,305,40,16,59,006,46,1*6C
$GPGSV,2,2,08,18,14,059,00,26,40,052,44,27,79,181,48,31,25,117,42,1*60
$GPRMC,091944.00,A,3110.7582653,N,12124.3630872,E,0.05,0.00,071222,0.0,E,D*34
$GPGGA,091944.00,3110.7582653,N,12124.3630872,E,4,07,1.0,28.628,M,10.843,M,1.0,*7D
$GPGSA,A,3,04,08,09,16,18,26,27,31,,,,,2.1,1.1,1.8,1*2D
$GPGSV,2,1,08,04,51,267,46,08,43,212,46,09,28,305,40,16,59,006,46,1*6C
$GPGSV,2,2,08,18,14,059,00,26,40,052,44,27,79,181,48,31,25,117,42,1*60
$GPRMC,091945.00,A,3110.7582668,N,12124.3630848,E,0.07,0.00,071222,0.0,E,D*36
$GPGGA,091945.00,3110.7582668,N,12124.3630848,E,4,07,1.0,28.630,M,10.843,M,1.0,*74
$GPGSA,A,3,04,08,09,16,18,26,27,31,,,,,2.1,1.1,1.8,1*2D
$GPGSV,2,1,08,04,51,267,46,08,43,212,45,09,28,305,40,16,59,006,46,1*6F
$GPGSV,2,2,08,18,14,059,00,26,40,052,44,27,79,180,48,31,25,117,42,1*61
$GPRMC,091946.00,A,3110.7582657,N,12124.3630870,E,0.02,0.00,071222,0.0,E,D*37
$GPGGA,091946.00,3110.7582657,N,12124.3630870,E,4,07,1.0,28.633,M,10.843,M,1.0,*73
$GPGSA,A,3,04,08,09,16,18,26,27,31,,,,,2.1,1.1,1.8,1*2D
$GPGSV,2,1,08,04,51,267,45,08,43,212,45,09,28,305,40,16,59,006,46,1*6C
$GPGSV,2,2,08,18,14,059,00,26,40,052,44,27,79,180,48,31,25,117,42,1*61
$GPRMC,091947.00,A,3110.7582660,N,12124.3630871,E,0.02,0.00,071222,0.0,E,D*33
$GPGGA,091947.00,3110.7582660,N,12124.3630871,E,4,07,1.0,28.630,M,10.843,M,1.0,*74
$GPGSA,A,3,04,08,09,16,18,26,27,31,,,,,2.1,1.1,1.8,1*2D
$GPGSV,2,1,08,04,51,267,45,08,43,212,45,09,28,305,40,16,59,006,46,1*6C
$GPGSV,2,2,08,18,14,059,00,26,40,052,44,27,79,180,48,31,25,117,42,1*61
$GPRMC,091948.00,A,3110.7582668,N,12124.3630869,E,0.04,0.00,071222,0.0,E,D*3B
$GPGGA,091948.00,3110.7582668,N,12124.3630869,E,4,07,1.0,28.634,M,10.843,M,1.0,*7E
$GPGSA,A,3,04,08,09,16,18,26,27,31,,,,,2.1,1.1,1.8,1*2D
$GPGSV,2,1,08,04,51,267,45,08,43,212,45,09,28,305,40,16,59,006,46,1*6C
$GPGSV,2,2,08,18,14,059,00,26,40,052,44,27,79,180,48,31,25,117,42,1*61
$GPRMC,091949.00,A,3110.7582668,N,12124.3630869,E,0.06,0.00,071222,0.0,E,D*38
$GPGGA,091949.00,3110.7582668,N,12124.3630869,E,4,07,1.0,28.632,M,10.843,M,1.0,*79
$GPGSA,A,3,04,08,09,16,18,26,27,31,,,,,2.1,1.1,1.8,1*2D
$GPGSV,2,1,08,04,51,267,46,08,43,212,46,09,28,305,40,16,59,006,46,1*6C
$GPGSV,2,2,08,18,14,059,00,26,40,052,44,27,79,180,48,31,25,117,42,1*61
$GPRMC,091950.00,A,3110.7582674,N,12124.3630857,E,0.02,0.00,071222,0.0,E,D*34
$GPGGA,091950.00,3110.7582674,N,12124.3630857,E,4,07,1.0,28.631,M,10.843,M,1.0,*72
$GPGSA,A,3,04,08,09,16,18,26,27,31,,,,,2.1,1.1,1.8,1*2D
$GPGSV,2,1,08,04,51,267,46,08,43,212,46,09,28,305,40,16,59,006,46,1*6C
$GPGSV,2,2,08,18,14,059,00,26,40,052,44,27,79,180,48,31,25,117,42,1*61
$GPRMC,091951.00,A,3110.7582671,N,12124.3630864,E,0.01,0.00,071222,0.0,E,D*33
$GPGGA,091951.00,3110.7582671,N,12124.3630864,E,4,07,1.0,28.630,M,10.843,M,1.0,*77
$GPGSA,A,3,04,08,09,16,18,26,27,31,,,,,2.1,1.1,1.8,1*2D
$GPGSV,2,1,08,04,51,267,46,08,43,212,45,09,28,305,40,16,59,006,46,1*6F
$GPGSV,2,2,08,18,14,059,00,26,40,052,44,27,79,180,48,31,25,117,42,1*61
$GPRMC,091952.00,A,3110.7582659,N,12124.3630863,E,0.05,0.00,071222,0.0,E,D*39
$GPGGA,091952.00,3110.7582659,N,12124.3630863,E,4,07,1.0,28.626,M,10.843,M,1.0,*7E
$GPGSA,A,3,04,08,09,16,18,26,27,31,,,,,2.1,1.1,1.8,1*2D
$GPGSV,2,1,08,04,51,267,46,08,43,212,45,09,28,305,41,16,59,006,46,1*6E
$GPGSV,2,2,08,18,14,059,00,26,40,052,44,27,79,180,48,31,25,117,42,1*61
$GPRMC,091953.00,A,3110.7582642,N,12124.3630861,E,0.03,0.00,071222,0.0,E,D*36
$GPGGA,091953.00,3110.7582642,N,12124.3630861,E,4,07,1.0,28.630,M,10.843,M,1.0,*70
$GPGSA,A,3,04,08,09,16,18,26,27,31,,,,,2.1,1.1,1.8,1*2D
$GPGSV,2,1,08,04,51,267,46,08,43,212,45,09,28,305,41,16,59,006,46,1*6E
$GPGSV,2,2,08,18,14,059,00,26,40,052,44,27,79,180,48,31,25,117,42,1*61
$GPRMC,091954.00,A,3110.7582648,N,12124.3630869,E,0.08,0.00,071222,0.0,E,D*38
$GPGGA,091954.00,3110.7582648,N,12124.3630869,E,4,07,1.0,28.628,M,10.843,M,1.0,*7C
$GPGSA,A,3,04,08,09,16,18,26,27,31,,,,,2.1,1.1,1.8,1*2D
$GPGSV,2,1,08,04,51,267,45,08,44,212,45,09,28,305,41,16,59,006,46,1*6A
$GPGSV,2,2,08,18,14,059,00,26,40,052,44,27,79,180,48,31,25,117,42,1*61
$GPRMC,091955.00,A,3110.7582658,N,12124.3630860,E,0.02,0.00,071222,0.0,E,D*3B
$GPGGA,091955.00,3110.7582658,N,12124.3630860,E,4,07,1.0,28.631,M,10.843,M,1.0,*7D
$GPGSA,A,3,04,08,09,16,18,26,27,31,,,,,2.1,1.1,1.8,1*2D
$GPGSV,2,1,08,04,51,267,45,08,44,212,45,09,28,305,41,16,59,006,46,1*6A
$GPGSV,2,2,08,18,14,059,00,26,40,052,44,27,79,180,48,31,25,117,42,1*61
$GPRMC,091956.00,A,3110.7582650,N,12124.3630848,E,0.02,0.00,071222,0.0,E,D*3A
$GPGGA,091956.00,3110.7582650,N,12124.3630848,E,4,07,1.0,28.634,M,10.843,M,1.0,*79
$GPGSA,A,3,04,08,09,16,18,26,27,31,,,,,2.1,1.1,1.8,1*2D
$GPGSV,2,1,08,04,51,267,46,08,44,212,45,09,28,305,41,16,59,006,46,1*69
$GPGSV,2,2,08,18,14,059,00,26,40,052,44,27,79,180,48,31,25,117,42,1*61
$GPRMC,091957.00,A,3110.7582653,N,12124.3630858,E,0.04,0.00,071222,0.0,E,D*3F
$GPGGA,091957.00,3110.7582653,N,12124.3630858,E,4,07,1.0,28.634,M,10.843,M,1.0,*7A
$GPGSA,A,3,04,08,09,16,18,26,27,31,,,,,2.1,1.1,1.8,1*2D
$GPGSV,2,1,08,04,51,267,45,08,44,212,45,09,28,305,41,16,59,006,46,1*6A
$GPGSV,2,2,08,18,14,059,00,26,40,052,44,27,79,180,48,31,25,117,42,1*61
$GPRMC,091958.00,A,3110.7582667,N,12124.3630859,E,0.03,0.00,071222,0.0,E,D*31
$GPGGA,091958.00,3110.7582667,N,12124.3630859,E,4,07,1.0,28.638,M,10.843,M,1.0,*7F
$GPGSA,A,3,04,08,09,16,18,26,27,31,,,,,2.1,1.1,1.8,1*2D
$GPGSV,2,1,08,04,51,267,45,08,44,212,45,09,28,305,41,16,59,006,46,1*6A
$GPGSV,2,2,08,18,14,059,00,26,40,052,44,27,79,180,48,31,25,117,42,1*61
$GPRMC,091959.00,A,3110.7582678,N,12124.3630856,E,0.04,0.00,071222,0.0,E,D*36
$GPGGA,091959.00,3110.7582678,N,12124.3630856,E,4,07,1.0,28.637,M,10.843,M,1.0,*70
$GPGSA,A,3,04,08,09,16,18,26,27,31,,,,,2.1,1.1,1.8,1*2D
$GPGSV,2,1,08,04,51,267,45,08,44,212,45,09,28,305,41,16,59,006,46,1*6A
$GPGSV,2,2,08,18,14,059,00,26,40,052,44,27,79,180,47,31,25,117,42,1*6E
$GPRMC,092000.00,A,3110.7582666,N,12124.3630860,E,0.03,0.00,071222,0.0,E,D*3D
$GPGGA,092000.00,3110.7582666,N,12124.3630860,E,4,07,1.0,28.638,M,10.843,M,1.0,*73
$GPGSA,A,3,04,08,09,16,18,26,27,31,,,,,2.1,1.1,1.8,1*2D
$GPGSV,2,1,08,04,51,267,45,08,44,212,45,09,28,305,42,16,59,006,46,1*69
$GPGSV,2,2,08,18,14,059,00,26,40,052,44,27,79,180,47,31,25,117,42,1*6E
$GPRMC,092001.00,A,3110.7582663,N,12124.3630874,E,0.01,0.00,071222,0.0,E,D*3E
$GPGGA,092001.00,3110.7582663,N,12124.3630874,E,4,07,1.0,28.627,M,10.843,M,1.0,*7C
$GPGSA,A,3,04,08,09,16,18,26,27,31,,,,,2.1,1.1,1.8,1*2D
$GPGSV,2,1,08,04,51,267,45,08,44,212,45,09,28,305,42,16,59,006,46,1*69
$GPGSV,2,2,08,18,14,059,00,26,40,052,44,27,79,180,47,31,25,117,42,1*6E
$GPRMC,092002.00,A,3110.7582664,N,12124.3630862,E,0.04,0.00,071222,0.0,E,D*38
$GPGGA,092002.00,3110.7582664,N,12124.3630862,E,4,07,1.0,28.634,M,10.843,M,1.0,*7D
$GPGSA,A,3,04,08,09,16,18,26,27,31,,,,,2.1,1.1,1.8,1*2D
$GPGSV,2,1,08,04,51,267,45,08,44,212,45,09,28,305,42,16,59,006,46,1*69
$GPGSV,2,2,08,18,14,059,00,26,40,052,44,27,79,180,47,31,25,117,42,1*6E
$GPRMC,092003.00,A,3110.7582657,N,12124.3630875,E,0.03,0.00,071222,0.0,E,D*38
$GPGGA,092003.00,3110.7582657,N,12124.3630875,E,4,07,1.0,28.644,M,10.843,M,1.0,*7D
$GPGSA,A,3,04,08,09,16,18,26,27,31,,,,,2.1,1.1,1.8,1*2D
$GPGSV,2,1,08,04,51,267,45,08,44,212,45,09,28,305,42,16,59,006,46,1*69
$GPGSV,2,2,08,18,14,059,00,26,40,052,44,27,79,180,48,31,25,117,42,1*61
$GPRMC,092004.00,A,3110.7582664,N,12124.3630853,E,0.04,0.00,071222,0.0,E,D*3C
$GPGGA,092004.00,3110.7582664,N,12124.3630853,E,4,07,1.0,28.634,M,10.843,M,1.0,*79
$GPGSA,A,3,04,08,09,16,18,26,27,31,,,,,2.1,1.1,1.8,1*2D
$GPGSV,2,1,08,04,51,267,45,08,44,212,45,09,28,305,42,16,59,006,46,1*69
$GPGSV,2,2,08,18,14,059,00,26,40,052,44,27,79,180,48,31,25,117,42,1*61
$GPRMC,092005.00,A,3110.7582673,N,12124.3630871,E,0.04,0.00,071222,0.0,E,D*3B
$GPGGA,092005.00,3110.7582673,N,12124.3630871,E,4,07,1.0,28.632,M,10.843,M,1.0,*78
$GPGSA,A,3,04,08,09,16,18,26,27,31,,,,,2.1,1.1,1.8,1*2D
$GPGSV,2,1,08,04,51,267,45,08,44,212,45,09,28,305,42,16,59,006,46,1*69
$GPGSV,2,2,08,18,14,059,00,26,40,052,44,27,79,180,48,31,25,117,42,1*61
$GPRMC,092006.00,A,3110.7582666,N,12124.3630860,E,0.03,0.00,071222,0.0,E,D*3B
$GPGGA,092006.00,3110.7582666,N,12124.3630860,E,4,07,1.0,28.639,M,10.843,M,1.0,*74
$GPGSA,A,3,04,08,09,16,18,26,27,31,,,,,2.1,1.1,1.7,1*22
$GPGSV,2,1,08,04,51,267,45,08,44,212,45,09,28,305,42,16,59,006,46,1*69
$GPGSV,2,2,08,18,14,059,00,26,40,052,44,27,79,180,48,31,25,117,42,1*61
$GPRMC,092007.00,A,3110.7582642,N,12124.3630885,E,0.06,0.00,071222,0.0,E,D*32
$GPGGA,092007.00,3110.7582642,N,12124.3630885,E,4,07,1.0,28.629,M,10.843,M,1.0,*79
$GPGSA,A,3,04,08,09,16,18,26,27,31,,,,,2.1,1.1,1.7,1*22
$GPGSV,2,1,08,04,51,267,45,08,44,212,45,09,28,305,42,16,59,006,46,1*69
$GPGSV,2,2,08,18,14,059,00,26,40,052,44,27,79,180,48,31,25,117,42,1*61
$GPRMC,092008.00,A,3110.7582641,N,12124.3630877,E,0.05,0.00,071222,0.0,E,D*30
$GPGGA,092008.00,3110.7582641,N,12124.3630877,E,4,07,1.0,28.629,M,10.843,M,1.0,*78
$GPGSA,A,3,04,08,09,16,18,26,27,31,,,,,2.1,1.1,1.7,1*22
$GPGSV,2,1,08,04,51,267,45,08,44,212,45,09,28,305,42,16,59,006,46,1*69
$GPGSV,2,2,08,18,14,059,00,26,40,052,44,27,79,180,48,31,25,117,42,1*61
$GPRMC,092009.00,A,3110.7582628,N,12124.3630865,E,0.03,0.00,071222,0.0,E,D*3B
$GPGGA,092009.00,3110.7582628,N,12124.3630865,E,4,07,1.0,28.630,M,10.843,M,1.0,*7D
$GPGSA,A,3,04,08,09,16,18,26,27,31,,,,,2.1,1.1,1.7,1*22
$GPGSV,2,1,08,04,51,267,45,08,44,212,45,09,28,305,42,16,59,006,46,1*69
$GPGSV,2,2,08,18,14,059,00,26,40,052,44,27,79,180,48,31,25,117,42,1*61
$GPRMC,092010.00,A,3110.7582649,N,12124.3630865,E,0.02,0.00,071222,0.0,E,D*35
$GPGGA,092010.00,3110.7582649,N,12124.3630865,E,4,07,1.0,28.627,M,10.843,M,1.0,*74
$GPGSA,A,3,04,08,09,16,18,26,27,31,,,,,2.1,1.1,1.7,1*22
$GPGSV,2,1,08,04,51,267,45,08,44,212,45,09,28,305,42,16,59,006,46,1*69
$GPGSV,2,2,08,18,14,059,00,26,40,052,44,27,79,180,48,31,25,117,42,1*61
$GPRMC,092011.00,A,3110.7582651,N,12124.3630868,E,0.03,0.00,071222,0.0,E,D*31
$GPGGA,092011.00,3110.7582651,N,12124.3630868,E,4,07,1.0,28.630,M,10.843,M,1.0,*77
$GPGSA,A,3,04,08,09,16,18,26,27,31,,,,,2.1,1.1,1.7,1*22
$GPGSV,2,1,08,04,51,267,45,08,44,212,45,09,28,305,42,16,59,006,46,1*69
$GPGSV,2,2,08,18,14,059,00,26,40,052,44,27,79,180,48,31,25,117,42,1*61
$GPRMC,092012.00,A,3110.7582649,N,12124.3630874,E,0.02,0.00,071222,0.0,E,D*37
$GPGGA,092012.00,3110.7582649,N,12124.3630874,E,4,07,1.0,28.634,M,10.843,M,1.0,*74
$GPGSA,A,3,04,08,09,16,18,26,27,31,,,,,2.1,1.1,1.7,1*22
$GPGSV,2,1,08,04,51,267,46,08,44,212,45,09,28,305,42,16,59,006,46,1*6A
$GPGSV,2,2,08,18,14,059,00,26,40,052,44,27,79,180,48,31,25,117,42,1*61
$GPRMC,092013.00,A,3110.7582645,N,12124.3630862,E,0.02,0.00,071222,0.0,E,D*3D
$GPGGA,092013.00,3110.7582645,N,12124.3630862,E,4,07,1.0,28.636,M,10.843,M,1.0,*7C
$GPGSA,A,3,04,08,09,16,18,26,27,31,,,,,2.1,1.1,1.7,1*22
$GPGSV,2,1,08,04,51,267,46,08,44,212,45,09,28,305,42,16,59,006,46,1*6A
$GPGSV,2,2,08,18,14,059,00,26,40,052,44,27,79,180,48,31,25,117,42,1*61
$GPRMC,092014.00,A,3110.7582651,N,12124.3630867,E,0.01,0.00,071222,0.0,E,D*39
$GPGGA,092014.00,3110.7582651,N,12124.3630867,E,4,07,1.0,28.631,M,10.843,M,1.0,*7C
$GPGSA,A,3,04,08,09,16,18,26,27,31,,,,,2.1,1.1,1.7,1*22
$GPGSV,2,1,08,04,51,266,46,08,44,212,45,09,28,305,42,16,59,006,46,1*6B
$GPGSV,2,2,08,18,14,059,00,26,40,052,44,27,79,180,48,31,25,117,42,1*61
$GPRMC,092015.00,A,3110.7582650,N,12124.3630868,E,0.03,0.00,071222,0.0,E,D*34
$GPGGA,092015.00,3110.7582650,N,12124.3630868,E,4,07,1.0,28.633,M,10.843,M,1.0,*71
$GPGSA,A,3,04,08,09,16,18,26,27,31,,,,,2.1,1.1,1.7,1*22
$GPGSV,2,1,08,04,51,266,46,08,44,212,45,09,28,305,42,16,59,006,46,1*6B
$GPGSV,2,2,08,18,14,059,00,26,40,052,44,27,79,180,48,31,25,117,42,1*61
$GPRMC,092016.00,A,3110.7582659,N,12124.3630857,E,0.05,0.00,071222,0.0,E,D*34
$GPGGA,092016.00,3110.7582659,N,12124.3630857,E,4,07,1.0,28.634,M,10.843,M,1.0,*70
$GPGSA,A,3,04,08,09,16,18,26,27,31,,,,,2.1,1.1,1.7,1*22
$GPGSV,2,1,08,04,51,266,46,08,44,212,45,09,28,305,42,16,59,006,46,1*6B
$GPGSV,2,2,08,18,14,059,00,26,40,052,44,27,79,180,48,31,25,118,42,1*6E
$GPRMC,092017.00,A,3110.7582662,N,12124.3630867,E,0.02,0.00,071222,0.0,E,D*39
$GPGGA,092017.00,3110.7582662,N,12124.3630867,E,4,07,1.0,28.634,M,10.843,M,1.0,*7A
$GPGSA,A,3,04,08,09,16,18,26,27,31,,,,,2.1,1.1,1.7,1*22
$GPGSV,2,1,08,04,51,266,46,08,44,212,45,09,28,305,42,16,59,006,46,1*6B
$GPGSV,2,2,08,18,14,059,00,26,40,052,44,27,79,180,48,31,25,118,42,1*6E
$GPRMC,092018.00,A,3110.7582666,N,12124.3630871,E,0.03,0.00,071222,0.0,E,D*34
$GPGGA,092018.00,3110.7582666,N,12124.3630871,E,4,07,1.0,28.628,M,10.843,M,1.0,*7B
$GPGSA,A,3,04,08,09,16,18,26,27,31,,,,,2.1,1.1,1.7,1*22
$GPGSV,2,1,08,04,51,266,46,08,44,212,45,09,28,305,42,16,59,006,46,1*6B
$GPGSV,2,2,08,18,14,059,00,26,40,052,44,27,79,180,48,31,25,118,42,1*6E
$GPRMC,092019.00,A,3110.7582647,N,12124.3630867,E,0.05,0.00,071222,0.0,E,D*37
$GPGGA,092019.00,3110.7582647,N,12124.3630867,E,4,07,1.0,28.633,M,10.843,M,1.0,*74
$GPGSA,A,3,04,08,09,16,18,26,27,31,,,,,2.1,1.1,1.7,1*22
$GPGSV,2,1,08,04,51,266,46,08,44,212,45,09,28,305,42,16,59,006,46,1*6B
$GPGSV,2,2,08,18,14,059,00,26,40,052,44,27,79,180,48,31,25,118,42,1*6E
$GPRMC,092020.00,A,3110.7582649,N,12124.3630870,E,0.01,0.00,071222,0.0,E,D*31
$GPGGA,092020.00,3110.7582649,N,12124.3630870,E,4,07,1.0,28.634,M,10.843,M,1.0,*71
$GPGSA,A,3,04,08,09,16,18,26,27,31,,,,,2.1,1.1,1.7,1*22
$GPGSV,2,1,08,04,51,266,46,08,44,212,45,09,28,305,42,16,59,006,47,1*6A
$GPGSV,2,2,08,18,14,059,00,26,40,052,44,27,79,180,48,31,25,118,42,1*6E
$GPRMC,092021.00,A,3110.7582650,N,12124.3630867,E,0.04,0.00,071222,0.0,E,D*3B
$GPGGA,092021.00,3110.7582650,N,12124.3630867,E,4,07,1.0,28.633,M,10.843,M,1.0,*79
$GPGSA,A,3,04,08,09,16,18,26,27,31,,,,,2.1,1.1,1.7,1*22
$GPGSV,2,1,08,04,51,266,46,08,44,212,45,09,28,305,42,16,59,006,47,1*6A
$GPGSV,2,2,08,18,14,059,00,26,40,052,44,27,79,180,48,31,25,118,42,1*6E
$GPRMC,092022.00,A,3110.7582640,N,12124.3630866,E,0.03,0.00,071222,0.0,E,D*3F
$GPGGA,092022.00,3110.7582640,N,12124.3630866,E,4,07,1.0,28.635,M,10.843,M,1.0,*7C
$GPGSA,A,3,04,08,09,16,18,26,27,31,,,,,2.1,1.1,1.7,1*22
$GPGSV,2,1,08,04,51,266,46,08,44,212,45,09,28,305,42,16,59,006,47,1*6A
$GPGSV,2,2,08,18,14,059,00,26,40,052,44,27,79,180,48,31,25,118,42,1*6E
$GPRMC,092023.00,A,3110.7582636,N,12124.3630870,E,0.06,0.00,071222,0.0,E,D*3D
$GPGGA,092023.00,3110.7582636,N,12124.3630870,E,4,07,1.0,28.628,M,10.843,M,1.0,*77
$GPGSA,A,3,04,08,09,16,18,26,27,31,,,,,2.1,1.1,1.7,1*22
$GPGSV,2,1,08,04,51,266,46,08,44,212,45,09,28,305,42,16,59,006,47,1*6A
$GPGSV,2,2,08,18,14,059,00,26,40,052,44,27,79,180,48,31,25,118,42,1*6E
$GPRMC,092024.00,A,3110.7582628,N,12124.3630869,E,0.02,0.00,071222,0.0,E,D*39
$GPGGA,092024.00,3110.7582628,N,12124.3630869,E,4,07,1.0,28.636,M,10.843,M,1.0,*78
$GPGSA,A,3,04,08,09,16,18,26,27,31,,,,,2.1,1.1,1.7,1*22
$GPGSV,2,1,08,04,51,266,45,08,44,212,45,09,28,305,42,16,59,006,46,1*68
$GPGSV,2,2,08,18,14,059,00,26,40,052,44,27,79,180,48,31,25,118,42,1*6E
$GPRMC,092025.00,A,3110.7582645,N,12124.3630865,E,0.03,0.00,071222,0.0,E,D*3E
$GPGGA,092025.00,3110.7582645,N,12124.3630865,E,4,07,1.0,28.636,M,10.843,M,1.0,*7E
$GPGSA,A,3,04,08,09,16,18,26,27,31,,,,,2.1,1.1,1.7,1*22
$GPGSV,2,1,08,04,51,266,45,08,44,212,45,09,28,305,42,16,59,006,46,1*68
$GPGSV,2,2,08,18,14,059,00,26,40,052,44,27,79,180,48,31,25,118,42,1*6E
$GPRMC,092026.00,A,3110.7582648,N,12124.3630881,E,0.03,0.00,071222,0.0,E,D*3A
$GPGGA,092026.00,3110.7582648,N,12124.3630881,E,4,07,1.0,28.633,M,10.843,M,1.0,*7F
$GPGSA,A,3,04,08,09,16,18,26,27,31,,,,,2.1,1.1,1.7,1*22
$GPGSV,2,1,08,04,51,266,45,08,44,212,45,09,28,305,42,16,59,006,46,1*68
$GPGSV,2,2,08,18,14,059,00,26,40,052,44,27,79,180,48,31,25,118,42,1*6E
$GPRMC,092027.00,A,3110.7582643,N,12124.3630874,E,0.01,0.00,071222,0.0,E,D*38
$GPGGA,092027.00,3110.7582643,N,12124.3630874,E,4,07,1.0,28.635,M,10.843,M,1.0,*79
$GPGSA,A,3,04,08,09,16,18,26,27,31,,,,,2.1,1.1,1.7,1*22
$GPGSV,2,1,08,04,51,266,45,08,44,212,45,09,28,305,42,16,59,006,47,1*69
$GPGSV,2,2,08,18,14,059,00,26,40,052,44,27,79,180,48,31,25,118,42,1*6E
$GPRMC,092028.00,A,3110.7582652,N,12124.3630874,E,0.02,0.00,071222,0.0,E,D*34
$GPGGA,092028.00,3110.7582652,N,12124.3630874,E,4,07,1.0,28.636,M,10.843,M,1.0,*75
$GPGSA,A,3,04,08,09,16,18,26,27,31,,,,,2.1,1.1,1.7,1*22
$GPGSV,2,1,08,04,51,266,45,08,44,212,45,09,28,305,42,16,59,006,47,1*69
$GPGSV,2,2,08,18,14,059,00,26,40,052,44,27,79,180,48,31,25,118,42,1*6E
$GPRMC,092029.00,A,3110.7582662,N,12124.3630862,E,0.02,0.00,071222,0.0,E,D*31
$GPGGA,092029.00,3110.7582662,N,12124.3630862,E,4,07,1.0,28.638,M,10.843,M,1.0,*7E
$GPGSA,A,3,04,08,09,16,18,26,27,31,,,,,2.1,1.1,1.7,1*22
$GPGSV,2,1,08,04,51,266,45,08,44,212,45,09,28,305,42,16,59,006,46,1*68
$GPGSV,2,2,08,18,14,059,00,26,40,052,44,27,79,180,48,31,25,118,42,1*6E
$GPRMC,092030.00,A,3110.7582663,N,12124.3630872,E,0.01,0.00,071222,0.0,E,D*3A
$GPGGA,092030.00,3110.7582663,N,12124.3630872,E,4,07,1.0,28.638,M,10.843,M,1.0,*76
$GPGSA,A,3,04,08,09,16,18,26,27,31,,,,,2.1,1.1,1.7,1*22
$GPGSV,2,1,08,04,51,266,45,08,44,212,45,09,28,305,42,16,59,006,46,1*68
$GPGSV,2,2,08,18,14,059,00,26,40,052,44,27,79,180,48,31,25,118,42,1*6E
$GPRMC,092031.00,A,3110.7582654,N,12124.3630867,E,0.03,0.00,071222,0.0,E,D*39
$GPGGA,092031.00,3110.7582654,N,12124.3630867,E,4,07,1.0,28.632,M,10.843,M,1.0,*7D
$GPGSA,A,3,04,08,09,16,18,26,27,31,,,,,2.1,1.1,1.7,1*22
$GPGSV,2,1,08,04,51,266,45,08,44,212,45,09,28,305,42,16,59,006,46,1*68
$GPGSV,2,2,08,18,14,059,00,26,40,052,44,27,79,180,48,31,25,118,42,1*6E
$GPRMC,092032.00,A,3110.7582655,N,12124.3630882,E,0.03,0.00,071222,0.0,E,D*30
$GPGGA,092032.00,3110.7582655,N,12124.3630882,E,4,07,1.0,28.631,M,10.843,M,1.0,*77
$GPGSA,A,3,04,08,09,16,18,26,27,31,,,,,2.1,1.1,1.7,1*22
$GPGSV,2,1,08,04,51,266,45,08,44,212,45,09,28,305,42,16,59,006,46,1*68
$GPGSV,2,2,08,18,14,059,00,26,40,052,44,27,79,180,48,31,25,118,42,1*6E
$GPRMC,092033.00,A,3110.7582656,N,12124.3630870,E,0.07,0.00,071222,0.0,E,D*3B
$GPGGA,092033.00,3110.7582656,N,12124.3630870,E,4,07,1.0,28.635,M,10.843,M,1.0,*7C
$GPGSA,A,3,04,08,09,16,18,26,27,31,,,,,2.1,1.1,1.7,1*22
$GPGSV,2,1,08,04,51,266,46,08,44,212,45,09,28,305,42,16,59,006,46,1*6B
$GPGSV,2,2,08,18,14,059,00,26,40,052,44,27,79,180,48,31,25,118,42,1*6E
$GPRMC,092034.00,A,3110.7582638,N,12124.3630875,E,0.02,0.00,071222,0.0,E,D*34
$GPGGA,092034.00,3110.7582638,N,12124.3630875,E,4,07,1.0,28.633,M,10.843,M,1.0,*70
$GPGSA,A,3,04,08,09,16,18,26,27,31,,,,,2.1,1.1,1.7,1*22
$GPGSV,2,1,08,04,51,266,46,08,44,212,45,09,28,305,42,16,59,006,46,1*6B
$GPGSV,2,2,08,18,14,059,00,26,40,052,44,27,79,180,48,31,25,118,42,1*6E
$GPRMC,092035.00,A,3110.7582646,N,12124.3630868,E,0.04,0.00,071222,0.0,E,D*36
$GPGGA,092035.00,3110.7582646,N,12124.3630868,E,4,07,1.0,28.632,M,10.843,M,1.0,*75
$GPGSA,A,3,04,08,09,16,18,26,27,31,,,,,2.1,1.1,1.7,1*22
$GPGSV,2,1,08,04,51,266,46,08,44,212,45,09,28,305,42,16,59,006,46,1*6B
$GPGSV,2,2,08,18,14,059,00,26,40,052,44,27,79,180,48,31,25,118,42,1*6E
$GPRMC,092036.00,A,3110.7582635,N,12124.3630870,E,0.04,0.00,071222,0.0,E,D*38
$GPGGA,092036.00,3110.7582635,N,12124.3630870,E,4,07,1.0,28.630,M,10.843,M,1.0,*79
$GPGSA,A,3,04,08,09,16,18,26,27,31,,,,,2.1,1.1,1.7,1*22
$GPGSV,2,1,08,04,51,266,46,08,44,212,45,09,28,305,42,16,59,006,46,1*6B
$GPGSV,2,2,08,18,14,059,00,26,40,052,44,27,79,180,48,31,25,118,42,1*6E
$GPRMC,092037.00,A,3110.7582635,N,12124.3630866,E,0.02,0.00,071222,0.0,E,D*38
$GPGGA,092037.00,3110.7582635,N,12124.3630866,E,4,07,1.0,28.628,M,10.843,M,1.0,*76
$GPGSA,A,3,04,08,09,16,18,26,27,31,,,,,2.1,1.1,1.7,1*22
$GPGSV,2,1,08,04,51,266,46,08,44,212,45,09,28,305,42,16,59,006,46,1*6B
$GPGSV,2,2,08,18,14,059,00,26,40,052,44,27,79,180,48,31,25,118,42,1*6E
$GPRMC,092038.00,A,3110.7582643,N,12124.3630871,E,0.04,0.00,071222,0.0,E,D*36
$GPGGA,092038.00,3110.7582643,N,12124.3630871,E,4,07,1.0,28.634,M,10.843,M,1.0,*73
$GPGSA,A,3,04,08,09,16,18,26,27,31,,,,,2.1,1.1,1.7,1*22
$GPGSV,2,1,08,04,51,266,45,08,44,212,45,09,28,305,42,16,59,006,46,1*68
$GPGSV,2,2,08,18,14,059,00,26,40,052,44,27,79,180,48,31,25,118,42,1*6E
$GPRMC,092039.00,A,3110.7582651,N,12124.3630873,E,0.03,0.00,071222,0.0,E,D*31
$GPGGA,092039.00,3110.7582651,N,12124.3630873,E,4,07,1.0,28.641,M,10.843,M,1.0,*71
$GPGSA,A,3,04,08,09,16,18,26,27,31,,,,,2.1,1.1,1.7,1*22
$GPGSV,2,1,08,04,51,266,45,08,44,212,45,09,28,305,41,16,59,006,47,1*6A
$GPGSV,2,2,08,18,14,059,00,26,40,052,44,27,79,180,48,31,25,118,42,1*6E
$GPRMC,092040.00,A,3110.7582656,N,12124.3630873,E,0.02,0.00,071222,0.0,E,D*39
$GPGGA,092040.00,3110.7582656,N,12124.3630873,E,4,07,1.0,28.633,M,10.843,M,1.0,*7D
$GPGSA,A,3,04,08,09,16,18,26,27,31,,,,,2.1,1.1,1.7,1*22
$GPGSV,2,1,08,04,51,266,46,08,44,212,45,09,28,305,41,16,59,006,46,1*68
$GPGSV,2,2,08,18,14,059,00,26,40,052,44,27,79,180,48,31,25,118,42,1*6E
$GPRMC,092041.00,A,3110.7582641,N,12124.3630871,E,0.02,0.00,071222,0.0,E,D*3C
$GPGGA,092041.00,3110.7582641,N,12124.3630871,E,4,07,1.0,28.635,M,10.843,M,1.0,*7E
$GPGSA,A,3,04,08,09,16,18,26,27,31,,,,,2.1,1.1,1.7,1*22
$GPGSV,2,1,08,04,51,266,46,08,44,212,45,09,28,305,41,16,59,006,46,1*68
$GPGSV,2,2,08,18,14,059,00,26,40,052,44,27,79,180,48,31,25,118,42,1*6E
$GPRMC,092042.00,A,3110.7582638,N,12124.3630874,E,0.03,0.00,071222,0.0,E,D*35
$GPGGA,092042.00,3110.7582638,N,12124.3630874,E,4,07,1.0,28.628,M,10.843,M,1.0,*7A
$GPGSA,A,3,04,08,09,16,18,26,27,31,,,,,2.1,1.1,1.7,1*22
$GPGSV,2,1,08,04,51,266,46,08,44,212,45,09,28,305,41,16,59,006,46,1*68
$GPGSV,2,2,08,18,14,059,00,26,40,052,44,27,79,180,48,31,25,118,42,1*6E
$GPRMC,092043.00,A,3110.7582655,N,12124.3630868,E,0.02,0.00,071222,0.0,E,D*33
$GPGGA,092043.00,3110.7582655,N,12124.3630868,E,4,07,1.0,28.632,M,10.843,M,1.0,*76
$GPGSA,A,3,04,08,09,16,18,26,27,31,,,,,2.1,1.1,1.7,1*22
$GPGSV,2,1,08,04,51,266,46,08,44,212,45,09,28,305,41,16,59,006,46,1*68
$GPGSV,2,2,08,18,14,059,00,26,40,052,44,27,79,180,48,31,25,118,42,1*6E
$GPRMC,092044.00,A,3110.7582643,N,12124.3630866,E,0.04,0.00,071222,0.0,E,D*3B
$GPGGA,092044.00,3110.7582643,N,12124.3630866,E,4,07,1.0,28.633,M,10.843,M,1.0,*79
$GPGSA,A,3,04,08,09,16,18,26,27,31,,,,,2.1,1.1,1.7,1*22
$GPGSV,2,1,08,04,51,266,46,08,44,212,45,09,28,305,41,16,59,006,46,1*68
$GPGSV,2,2,08,18,14,059,00,26,40,053,44,27,79,180,48,31,25,118,42,1*6F
$GPRMC,092045.00,A,3110.7582652,N,12124.3630866,E,0.03,0.00,071222,0.0,E,D*3D
$GPGGA,092045.00,3110.7582652,N,12124.3630866,E,4,07,1.0,28.634,M,10.843,M,1.0,*7F
$GPGSA,A,3,04,08,09,16,18,26,27,31,,,,,2.1,1.1,1.7,1*22
$GPGSV,2,1,08,04,51,266,46,08,44,212,45,09,28,305,41,16,59,006,46,1*68
$GPGSV,2,2,08,18,14,059,00,26,40,053,44,27,79,180,48,31,25,118,42,1*6F
$GPRMC,092046.00,A,3110.7582653,N,12124.3630865,E,0.02,0.00,071222,0.0,E,D*3D
$GPGGA,092046.00,3110.7582653,N,12124.3630865,E,4,07,1.0,28.637,M,10.843,M,1.0,*7D
$GPGSA,A,3,04,08,09,16,18,26,27,31,,,,,2.1,1.1,1.7,1*22
$GPGSV,2,1,08,04,51,266,46,08,44,212,45,09,28,305,41,16,59,006,47,1*69
$GPGSV,2,2,08,18,14,059,00,26,40,053,44,27,79,180,48,31,25,118,42,1*6F
$GPRMC,092047.00,A,3110.7582657,N,12124.3630864,E,0.03,0.00,071222,0.0,E,D*38
$GPGGA,092047.00,3110.7582657,N,12124.3630864,E,4,07,1.0,28.633,M,10.843,M,1.0,*7D
$GPGSA,A,3,04,08,09,16,18,26,27,31,,,,,2.1,1.1,1.7,1*22
$GPGSV,2,1,08,04,51,266,46,08,44,212,45,09,28,305,41,16,59,006,47,1*69
$GPGSV,2,2,08,18,14,059,00,26,40,053,44,27,79,180,48,31,25,118,42,1*6F
$GPRMC,092048.00,A,3110.7582654,N,12124.3630872,E,0.02,0.00,071222,0.0,E,D*32
$GPGGA,092048.00,3110.7582654,N,12124.3630872,E,4,07,1.0,28.638,M,10.843,M,1.0,*7D
$GPGSA,A,3,04,08,09,16,18,26,27,31,,,,,2.1,1.1,1.7,1*22
$GPGSV,2,1,08,04,51,266,46,08,44,212,45,09,28,305,42,16,59,006,47,1*6A
$GPGSV,2,2,08,18,14,059,00,26,40,053,44,27,79,180,48,31,25,118,42,1*6F
$GPRMC,092049.00,A,3110.7582660,N,12124.3630861,E,0.02,0.00,071222,0.0,E,D*36
$GPGGA,092049.00,3110.7582660,N,12124.3630861,E,4,07,1.0,28.636,M,10.843,M,1.0,*77
$GPGSA,A,3,04,08,09,16,18,26,27,31,,,,,2.1,1.1,1.7,1*22
$GPGSV,2,1,08,04,51,266,46,08,44,212,45,09,28,305,41,16,59,006,46,1*68
$GPGSV,2,2,08,18,14,059,00,26,40,053,44,27,79,180,48,31,25,118,42,1*6F
$GPRMC,092050.00,A,3110.7582660,N,12124.3630863,E,0.05,0.00,071222,0.0,E,D*3B
$GPGGA,092050.00,3110.7582660,N,12124.3630863,E,4,07,1.0,28.634,M,10.843,M,1.0,*7F
$GPGSA,A,3,04,08,09,16,18,26,27,31,,,,,2.1,1.1,1.7,1*22
$GPGSV,2,1,08,04,51,266,46,08,44,212,45,09,28,305,41,16,59,006,46,1*68
$GPGSV,2,2,08,18,14,059,00,26,40,053,44,27,79,180,48,31,25,118,42,1*6F
$GPRMC,092051.00,A,3110.7582651,N,12124.3630871,E,0.04,0.00,071222,0.0,E,D*3A
$GPGGA,092051.00,3110.7582651,N,12124.3630871,E,4,07,1.0,28.632,M,10.843,M,1.0,*79
$GPGSA,A,3,04,08,09,16,18,26,27,31,,,,,2.1,1.1,1.7,1*22
$GPGSV,2,1,08,04,51,266,46,08,44,212,45,09,28,305,42,16,59,006,46,1*6B
$GPGSV,2,2,08,18,14,059,00,26,40,053,44,27,79,180,48,31,25,118,42,1*6F
$GPRMC,092052.00,A,3110.7582650,N,12124.3630870,E,0.05,0.00,071222,0.0,E,D*38
$GPGGA,092052.00,3110.7582650,N,12124.3630870,E,4,07,1.0,28.635,M,10.843,M,1.0,*7D
$GPGSA,A,3,04,08,09,16,18,26,27,31,,,,,2.1,1.1,1.7,1*22
$GPGSV,2,1,08,04,51,266,46,08,44,212,45,09,28,305,41,16,59,006,46,1*68
$GPGSV,2,2,08,18,14,059,00,26,40,053,44,27,79,180,48,31,25,118,42,1*6F
$GPRMC,092053.00,A,3110.7582624,N,12124.3630877,E,0.04,0.00,071222,0.0,E,D*3C
$GPGGA,092053.00,3110.7582624,N,12124.3630877,E,4,07,1.0,28.634,M,10.843,M,1.0,*79
$GPGSA,A,3,04,08,09,16,18,26,27,31,,,,,2.1,1.1,1.7,1*22
$GPGSV,2,1,08,04,51,266,46,08,44,212,45,09,28,305,41,16,59,006,46,1*68
$GPGSV,2,2,08,18,14,059,00,26,40,053,44,27,79,180,48,31,25,118,42,1*6F
$GPRMC,092054.00,A,3110.7582646,N,12124.3630856,E,0.02,0.00,071222,0.0,E,D*3A
$GPGGA,092054.00,3110.7582646,N,12124.3630856,E,4,07,1.0,28.632,M,10.843,M,1.0,*7F
$GPGSA,A,3,04,08,09,16,18,26,27,31,,,,,2.1,1.1,1.7,1*22
$GPGSV,2,1,08,04,51,266,46,08,44,212,45,09,28,305,41,16,59,007,46,1*69
$GPGSV,2,2,08,18,14,059,00,26,40,053,44,27,79,180,48,31,25,118,42,1*6F
$GPRMC,092055.00,A,3110.7582631,N,12124.3630878,E,0.02,0.00,071222,0.0,E,D*37
$GPGGA,092055.00,3110.7582631,N,12124.3630878,E,4,07,1.0,28.633,M,10.843,M,1.0,*73
$GPGSA,A,3,04,08,09,16,18,26,27,31,,,,,2.1,1.1,1.7,1*22
$GPGSV,2,1,08,04,51,266,46,08,44,212,45,09,28,305,41,16,59,007,46,1*69
$GPGSV,2,2,08,18,14,059,00,26,40,053,44,27,79,180,48,31,25,118,42,1*6F
$GPRMC,092056.00,A,3110.7582654,N,12124.3630874,E,0.03,0.00,071222,0.0,E,D*3A
$GPGGA,092056.00,3110.7582654,N,12124.3630874,E,4,07,1.0,28.629,M,10.843,M,1.0,*74
$GPGSA,A,3,04,08,09,16,18,26,27,31,,,,,2.1,1.1,1.7,1*22
$GPGSV,2,1,08,04,51,266,46,08,44,212,45,09,28,305,41,16,59,007,46,1*69
$GPGSV,2,2,08,18,14,059,00,26,40,053,43,27,79,180,48,31,25,118,42,1*68
$GPRMC,092057.00,A,3110.7582641,N,12124.3630860,E,0.05,0.00,071222,0.0,E,D*3C
$GPGGA,092057.00,3110.7582641,N,12124.3630860,E,4,07,1.0,28.631,M,10.843,M,1.0,*7D
$GPGSA,A,3,04,08,09,16,18,26,27,31,,,,,2.1,1.1,1.7,1*22
$GPGSV,2,1,08,04,51,266,46,08,44,212,45,09,28,305,41,16,59,007,46,1*69
$GPGSV,2,2,08,18,14,059,00,26,40,053,43,27,79,180,48,31,25,118,42,1*68
$GPRMC,092058.00,A,3110.7582659,N,12124.3630861,E,0.08,0.00,071222,0.0,E,D*36
$GPGGA,092058.00,3110.7582659,N,12124.3630861,E,4,07,1.0,28.638,M,10.843,M,1.0,*73
$GPGSA,A,3,04,08,09,16,18,26,27,31,,,,,2.1,1.1,1.7,1*22
$GPGSV,2,1,08,04,51,266,45,08,44,212,45,09,28,305,41,16,59,007,46,1*6A
$GPGSV,2,2,08,18,14,059,00,26,40,053,43,27,79,180,48,31,25,118,42,1*68
$GPRMC,092059.00,A,3110.7582659,N,12124.3630845,E,0.05,0.00,071222,0.0,E,D*3C
$GPGGA,092059.00,3110.7582659,N,12124.3630845,E,4,07,1.0,28.637,M,10.843,M,1.0,*7B
$GPGSA,A,3,04,08,09,16,18,26,27,31,,,,,2.1,1.1,1.7,1*22
$GPGSV,2,1,08,04,51,266,45,08,44,212,45,09,28,304,41,16,59,007,46,1*6B
$GPGSV,2,2,08,18,14,059,00,26,40,053,43,27,79,180,48,31,25,118,42,1*68
$GPRMC,092100.00,A,3110.7582659,N,12124.3630856,E,0.02,0.00,071222,0.0,E,D*34
$GPGGA,092100.00,3110.7582659,N,12124.3630856,E,4,07,1.0,28.635,M,10.843,M,1.0,*76
$GPGSA,A,3,04,08,09,16,18,26,27,31,,,,,2.1,1.1,1.7,1*22
$GPGSV,2,1,08,04,51,266,46,08,44,212,45,09,28,304,41,16,59,007,46,1*68
$GPGSV,2,2,08,18,14,059,00,26,40,053,43,27,79,180,48,31,25,118,42,1*68
$GPRMC,092101.00,A,3110.7582734,N,12124.3630435,E,0.11,0.00,071222,0.0,E,D*34
$GPGGA,092101.00,3110.7582734,N,12124.3630435,E,5,07,1.0,28.401,M,10.843,M,1.0,*70
$GPGSA,A,3,04,08,09,16,18,26,27,31,,,,,2.1,1.1,1.7,1*22
$GPGSV,2,1,08,04,51,266,43,08,44,212,44,09,28,304,39,16,59,007,45,1*60
$GPGSV,2,2,08,18,14,059,00,26,40,053,42,27,79,180,47,31,25,118,42,1*66
$GPRMC,092102.00,A,3110.7583146,N,12124.3630570,E,0.22,0.00,071222,0.0,E,D*35
$GPGGA,092102.00,3110.7583146,N,12124.3630570,E,5,07,1.0,28.442,M,10.843,M,1.0,*76
$GPGSA,A,3,04,08,09,16,18,26,27,31,,,,,2.1,1.1,1.7,1*22
$GPGSV,2,1,08,04,51,266,38,08,44,212,38,09,28,304,32,16,59,007,35,1*6B
$GPGSV,2,2,08,18,14,059,00,26,40,053,42,27,79,180,38,31,25,118,41,1*6D
$GPRMC,092103.00,A,3110.7583367,N,12124.3630189,E,0.83,0.00,071222,0.0,E,D*3C
$GPGGA,092103.00,3110.7583367,N,12124.3630189,E,5,07,1.0,28.067,M,10.843,M,1.0,*77
$GPGSA,A,3,04,08,09,16,18,26,27,31,,,,,2.1,1.1,1.7,1*22
$GPGSV,2,1,08,04,51,266,36,08,44,212,36,09,28,304,30,16,59,007,34,1*68
$GPGSV,2,2,08,18,14,059,00,26,40,053,40,27,79,180,34,31,25,118,41,1*63
$GPRMC,092104.00,A,3110.7582791,N,12124.3630908,E,0.74,0.00,071222,0.0,E,D*3E
$GPGGA,092104.00,3110.7582791,N,12124.3630908,E,5,07,1.0,28.628,M,10.843,M,1.0,*70
$GPGSA,A,3,04,08,09,16,18,26,27,31,,,,,2.1,1.1,1.7,1*22
$GPGSV,2,1,08,04,51,266,34,08,44,212,34,09,28,304,30,16,59,007,33,1*6F
$GPGSV,2,2,08,18,14,059,00,26,40,053,38,27,79,180,31,31,25,118,40,1*68
$GPRMC,092105.00,A,3110.7583041,N,12124.3630557,E,0.11,0.00,071222,0.0,E,D*31
$GPGGA,092105.00,3110.7583041,N,12124.3630557,E,5,07,1.0,28.412,M,10.843,M,1.0,*77
$GPGSA,A,3,04,08,09,16,18,26,27,31,,,,,2.1,1.1,1.7,1*22
$GPGSV,2,1,08,04,51,266,34,08,44,212,33,09,28,304,30,16,59,007,32,1*69
