     3.04           OBSERVATION DATA    G: GPS              RINEX VERSION / TYPE
RTKCONV demo5 b34g                      20230201 104029 UTC PGM / RUN BY / DATE 
format: RTCM 3                                              COMMENT             
log: C:\Users\Salmos\Desktop\test_data\rover_log.rtcm3      COMMENT             
0001                                                        MARKER NAME         
                                                            MARKER NUMBER       
                                                            MARKER TYPE         
                                                            OBSERVER / AGENCY   
                                                            REC # / TYPE / VERS 
                                                            ANT # / TYPE        
 -2846122.3750  4661588.2031  3282938.6406                  APPROX POSITION XYZ 
        0.0000        0.0000        0.0000                  ANTENNA: DELTA H/E/N
G    4 C1C L1C D1C S1C                                      SYS / # / OBS TYPES 
  2022    12    07    09    18   37.0000000     GPS         TIME OF FIRST OBS   
  2022    12    07    09    41   50.0000000     GPS         TIME OF LAST OBS    
G L1C                                                       SYS / PHASE SHIFT   
  0                                                         GLONASS SLOT / FRQ #
                                                            GLONASS COD/PHS/BIS 
                                                            END OF HEADER       
> 2022 12 07 09 18 38.0000000  0  9                     
G04  21254463.813   111692955.119        -171.409          44.125  
G08  21628685.000   113659543.198        2821.287          45.500  
G09  23039379.625   121072814.324        1778.432          41.063  
G16  20752916.625   109057319.644        -930.739          46.125  
G18  24334744.437   127879941.476        -315.252          35.938  
G22  24700420.750   129801617.3151      -3689.988          19.938  
G26  21915215.688   115165241.377       -1908.155          44.250  
G27  19964481.750   104914074.862         875.957          47.750  
G31  23498884.813   123487473.821       -2598.665          41.750  
> 2022 12 07 09 18 39.0000000  0  8                     
G04  21254496.375   111693126.795        -171.734          44.250  
G08  21628148.375   113656722.164        2821.133          45.500  
G09  23039041.688   121071036.168        1778.145          40.875  
G16  20753093.875   109058250.379        -930.609          45.938  
G18  24334804.812   127880257.100        -315.565          35.875  
G26  21915578.500   115167149.475       -1907.859          44.188  
G27  19964315.625   104913199.268         875.575          47.563  
G31  23499379.500   123490072.508       -2598.576          41.563  
> 2022 12 07 09 18 40.0000000  0  8                     
G04  21254529.125   111693298.803        -172.482          44.250  
G08  21627611.438   113653901.225        2820.547          45.563  
G09  23038703.375   121069258.251        1777.574          40.750  
G16  20753270.750   109059181.052        -930.965          45.875  
G18  24334864.562   127880572.916        -316.169          35.875  
G26  21915942.000   115169057.364       -1908.055          44.188  
G27  19964148.938   104912324.035         874.784          47.438  
G31  23499874.250   123492671.161       -2598.897          41.500  
> 2022 12 07 09 18 41.0000000  0  8                     
G04  21254561.875   111693471.772        -173.311          44.313  
G08  21627074.625   113651081.066        2819.939          45.563  
G09  23038364.750   121067481.247        1776.701          40.813  
G16  20753447.812   109060112.280        -931.385          46.063  
G18  24334925.625   127880889.658        -317.003          35.875  
G26  21916305.000   115170965.627       -1908.375          44.125  
G27  19963982.375   104911449.805         873.906          47.625  
G31  23500368.750   123495270.332       -2599.351          41.688  
> 2022 12 07 09 18 42.0000000  0  8                     
G04  21254594.750   111693645.583        -173.947          44.500  
G08  21626538.250   113648261.511        2819.405          45.563  
G09  23038026.750   121065704.888        1776.169          40.875  
G16  20753625.500   109061043.909        -931.621          46.188  
G18  24334985.750   127881207.085        -317.572          36.000  
G26  21916667.875   115172874.148       -1908.523          44.250  
G27  19963816.438   104910576.415         873.149          47.688  
G31  23500863.437   123497869.908       -2599.634          41.875  
> 2022 12 07 09 18 43.0000000  0  8                     
G04  21254627.687   111693819.974        -174.464          44.500  
G08  21626001.687   113645442.282        2819.227          45.500  
G09  23037689.000   121063929.068        1775.732          41.000  
G16  20753802.750   109061975.695        -931.661          46.313  
G18  24335046.625   127881524.991        -317.946          36.063  
G26  21917031.188   115174782.670       -1908.330          44.188  
G27  19963650.250   104909703.591         872.736          47.750  
G31  23501358.063   123500469.653       -2599.635          42.000  
> 2022 12 07 09 18 44.0000000  0  8                     
G04  21254660.250   111693994.991        -175.272          44.500  
G08  21625465.188   113642623.516        2818.611          45.500  
G09  23037350.812   121062153.769        1775.152          41.063  
G16  20753979.750   109062907.705        -932.097          46.438  
G18  24335107.750   127881843.440        -318.715          36.375  
G26  21917394.312   115176691.258       -1908.614          44.250  
G27  19963484.188   104908831.440         871.909          47.938  
G31  23501852.625   123503069.614       -2600.060          42.000  
> 2022 12 07 09 18 45.0000000  0  8                     
G04  21254693.250   111694170.608        -175.673          44.500  
G08  21624929.312   113639805.099        2818.446          45.563  
G09  23037013.250   121060378.981        1774.771          40.938  
G16  20754157.438   109063839.882        -932.095          46.438  
G18  24335167.625   127882162.396        -319.025          36.500  
G26  21917757.250   115178599.882       -1908.426          44.188  
G27  19963318.625   104907959.906         871.454          48.063  
G31  23502347.625   123505669.758       -2600.023          41.938  
> 2022 12 07 09 18 46.0000000  0  8                     
G04  21254725.937   111694346.864        -176.510          44.625  
G08  21624392.937   113636987.103        2817.728          45.375  
G09  23036676.000   121058604.679        1773.887          41.000  
G16  20754334.625   109064772.280        -932.596          46.375  
G18  24335228.375   127882481.867        -319.728          36.688  
G26  21918120.750   115180508.546       -1908.747          43.938  
G27  19963152.813   104907088.995         870.569          48.188  
G31  23502842.437   123508270.060       -2600.526          41.625  
> 2022 12 07 09 18 47.0000000  0  8                     
G04  21254759.188   111694523.746        -177.100          44.563  
G08  21623856.687   113634169.556        2817.461          45.500  
G09  23036338.125   121056830.968        1773.543          41.000  
G16  20754512.125   109065704.897        -932.699          46.375  
G18  24335289.688   127882801.877        -320.109          36.813  
G26  21918484.000   115182417.285       -1908.695          43.688  
G27  19962987.250   104906218.765         870.102          48.125  
G31  23503337.250   123510870.626       -2600.531          41.500  
> 2022 12 07 09 18 48.0000000  0  8                     
G04  21254792.625   111694701.388        -177.747          44.500  
G08  21623320.688   113631352.519        2817.039          45.438  
G09  23036000.625   121055057.887        1772.966          40.875  
G16  20754689.812   109066637.839        -932.936          46.500  
G18  24335350.313   127883122.545        -320.697          36.875  
G26  21918847.125   115184326.211       -1908.800          43.688  
G27  19962822.063   104905349.297         869.348          47.938  
G31  23503832.187   123513471.507       -2600.763          41.625  
> 2022 12 07 09 18 49.0000000  0  8                     
G04  21254827.063   111694879.662        -178.569          44.313  
G08  21622784.687   113628535.861        2816.467          45.500  
G09  23035663.625   121053285.339        1772.461          40.750  
G16  20754867.250   109067570.969        -933.175          46.188  
G18  24335411.438   127883443.725        -321.390          36.875  
G26  21919210.562   115186235.148       -1908.976          43.688  
G27  19962656.625   104904480.424         868.609          47.875  
G31  23504327.125   123516072.572       -2601.152          41.500  
> 2022 12 07 09 18 50.0000000  0  8                     
G04  21254861.750   111695058.643        -179.242          44.250  
G08  21622248.500   113625719.735        2816.010          45.375  
G09  23035326.375   121051513.394        1771.711          40.813  
G16  20755044.937   109068504.423        -933.564          46.000  
G18  24335473.375   127883765.545        -322.112          36.938  
G26  21919573.563   115188144.281       -1909.118          43.750  
G27  19962491.250   104903612.336         867.859          47.875  
G31  23504821.812   123518673.950       -2601.450          41.563  
> 2022 12 07 09 18 51.0000000  0  8                     
G04  21254895.188   111695238.422        -179.850          44.188  
G08  21621712.937   113622904.128        2815.607          45.438  
G09  23034989.125   121049742.135        1771.204          40.750  
G16  20755222.750   109069438.210        -933.687          46.000  
G18  24335534.813   127884088.042        -322.545          37.063  
G26  21919936.812   115190053.577       -1909.159          43.625  
G27  19962326.500   104902745.002         867.220          48.000  
G31  23505317.125   123521275.653       -2601.629          41.438  
> 2022 12 07 09 18 52.0000000  0  8                     
G04  21254929.813   111695418.584        -180.273          44.375  
G08  21621177.125   113620088.696        2815.567          45.375  
G09  23034652.625   121047971.155        1770.935          40.813  
G16  20755400.187   109070371.968        -933.655          46.063  
G18  24335596.437   127884410.780        -322.794          37.125  
G26  21920300.563   115191962.698       -1908.820          43.500  
G27  19962161.438   104901878.097         867.013          48.125  
G31  23505812.000   123523877.352       -2601.489          41.500  
> 2022 12 07 09 18 53.0000000  0  9                     
G04  21254964.625   111695599.272        -180.879          44.313  
G08  21620641.313   113617273.563        2814.900          45.375  
G09  23034315.625   121046200.607        1770.356          41.000  
G16  20755577.937   109071305.833        -933.875          46.125  
G18  24335658.000   127884734.002        -323.431          37.063  
G22  24710938.688   129856859.1513      -3690.442          19.625  
G26  21920663.687   115193871.780       -1909.255          43.375  
G27  19961996.500   104901011.732         866.060          48.063  
G31  23506306.938   123526479.128       -2601.866          41.500  
> 2022 12 07 09 18 54.0000000  0  9                     
G04  21254998.313   111695780.457        -181.873          44.375  
G08  21620105.625   113614458.726        2814.352          45.250  
G09  23033978.438   121044430.472        1769.476          41.188  
G16  20755755.750   109072239.775        -934.413          46.000  
G18  24335719.438   127885057.621        -324.194          36.750  
G22  24711639.875   129860547.1982      -3690.477          19.563  
G26  21921026.875   115195780.789       -1909.363          43.688  
G27  19961832.000   104900145.891         865.297          48.125  
G31  23506802.375   123529080.979       -2602.292          41.250  
> 2022 12 07 09 18 55.0000000  0  9                     
G04  21255033.625   111695963.072        -183.032          44.375  
G08  21619570.438   113611645.096        2813.349          44.875  
G09  23033642.625   121042661.693        1768.453          41.063  
G16  20755933.500   109073174.758        -935.147          45.938  
G18  24335781.000   127885382.583        -325.330          36.500  
G22  24712343.875   129864237.1213      -3690.282          19.375  
G26  21921390.625   115197690.627       -1910.033          43.875  
G27  19961667.312   104899281.467         864.020          48.188  
G31  23507297.687   123531683.843       -2603.022          41.438  
> 2022 12 07 09 18 56.0000000  0  8                     
G04  21255068.562   111696146.249        -182.870          44.625  
G08  21619034.875   113608831.793        2813.678          44.875  
G09  23033306.062   121040893.311        1768.669          41.250  
G16  20756111.563   109074109.841        -934.619          46.188  
G18  24335843.375   127885707.942        -325.033          36.563  
G26  21921753.812   115199600.475       -1909.353          43.813  
G27  19961502.750   104898417.622         864.129          48.250  
G31  23507793.125   123534286.838       -2602.440          41.375  
> 2022 12 07 09 18 57.0000000  0  8                     
G04  21255103.563   111696329.647        -184.151          44.750  
G08  21618499.500   113606018.526        2812.648          44.938  
G09  23032969.500   121039125.102        1767.455          41.438  
G16  20756289.563   109075044.728        -935.469          46.250  
G18  24335904.938   127886033.469        -326.234          36.563  
G26  21922117.312   115201509.956       -1909.960          43.938  
G27  19961338.688   104897554.032         862.812          48.125  
G31  23508288.437   123536889.626       -2603.375          41.250  
> 2022 12 07 09 18 58.0000000  0  8                     
G04  21255138.625   111696514.154        -184.139          44.750  
G08  21617964.688   113603206.120        2812.772          45.000  
G09  23032633.562   121037357.817        1767.706          41.500  
G16  20756467.375   109075980.309        -934.972          46.125  
G18  24335967.000   127886359.955        -326.093          36.563  
G26  21922480.812   115203419.982       -1909.443          44.063  
G27  19961174.438   104896691.528         862.798          48.063  
G31  23508783.750   123539493.087       -2603.002          41.250  
> 2022 12 07 09 18 59.0000000  0  8                     
G04  21255174.312   111696698.539        -185.022          45.000  
G08  21617429.125   113600393.393        2812.245          45.125  
G09  23032297.125   121035590.382        1766.946          41.313  
G16  20756645.313   109076915.342        -935.490          45.813  
G18  24336029.250   127886686.258        -326.826          36.500  
G26  21922844.062   115205329.300       -1909.686          44.250  
G27  19961010.125   104895828.949         861.991          47.938  
G31  23509279.063   123542096.037       -2603.276          41.313  
> 2022 12 07 09 19 00.0000000  0  8                     
G04  21255208.875   111696884.035        -186.108          45.188  
G08  21616893.813   113597581.585        2811.484          45.250  
G09  23031960.625   121033823.952        1765.799          41.438  
G16  20756823.500   109077851.079        -936.156          45.938  
G18  24336091.438   127887013.580        -327.823          36.438  
G26  21923207.625   115207239.154       -1910.121          44.313  
G27  19960846.375   104894967.497         861.005          48.063  
G31  23509774.687   123544699.636       -2603.956          41.313  
> 2022 12 07 09 19 01.0000000  0  8                     
G04  21255244.687   111697070.896        -186.825          45.313  
G08  21616359.312   113594770.906        2810.836          45.063  
G09  23031625.000   121032058.763        1765.284          41.563  
G16  20757001.625   109078787.739        -936.473          46.063  
G18  24336153.937   127887342.128        -328.440          36.500  
G26  21923571.187   115209149.778       -1910.273          44.313  
G27  19960682.625   104894107.393         860.187          48.125  
G31  23510269.937   123547304.192       -2604.330          41.188  
> 2022 12 07 09 19 02.0000000  0  8                     
G04  21255280.438   111697258.122        -186.637          45.375  
G08  21615824.438   113591960.405        2811.040          45.250  
G09  23031289.250   121030293.845        1765.512          41.500  
G16  20757179.875   109079724.351        -935.834          45.938  
G18  24336216.875   127887670.959        -328.264          36.625  
G26  21923934.437   115211060.230       -1909.826          44.438  
G27  19960518.750   104893247.682         860.148          48.000  
G31  23510765.375   123549908.681       -2603.868          41.250  
> 2022 12 07 09 19 03.0000000  0  8                     
G04  21255316.000   111697445.039        -187.384          45.313  
G08  21615289.437   113589149.366        2810.666          45.313  
G09  23030953.125   121028528.544        1764.854          41.500  
G16  20757358.312   109080660.243        -936.260          45.938  
G18  24336279.750   127887999.394        -328.969          36.688  
G26  21924298.062   115212969.763       -1909.932          44.375  
G27  19960355.437   104892387.689         859.437          48.000  
G31  23511261.062   123552512.427       -2604.159          41.250  
> 2022 12 07 09 19 04.0000000  0  8                     
G04  21255351.688   111697633.139        -188.676          45.063  
G08  21614754.875   113586339.271        2809.661          45.375  
G09  23030617.500   121026764.319        1763.717          41.375  
G16  20757536.500   109081596.869        -937.035          45.813  
G18  24336342.437   127888328.950        -330.044          36.750  
G26  21924661.500   115214879.935       -1910.452          44.563  
G27  19960191.937   104891528.888         858.255          47.875  
G31  23511756.562   123555116.951       -2604.878          41.063  
> 2022 12 07 09 19 05.0000000  0  8                     
G04  21255387.750   111697822.057        -188.963          45.000  
G08  21614220.125   113583529.763        2809.574          45.438  
G09  23030281.938   121025000.798        1763.486          41.313  
G16  20757714.875   109082533.920        -936.900          45.875  
G18  24336405.188   127888659.122        -330.174          36.813  
G26  21925024.812   115216790.372       -1910.202          44.563  
G27  19960028.500   104890670.917         857.981          47.875  
G31  23512252.437   123557721.885       -2604.809          41.250  
> 2022 12 07 09 19 06.0000000  0  8                     
G04  21255423.687   111698011.200        -189.220          45.063  
G08  21613685.375   113580720.231        2809.419          45.375  
G09  23029946.188   121023237.394        1763.410          41.250  
G16  20757893.062   109083470.741        -936.750          45.875  
G18  24336467.562   127888989.474        -330.470          36.813  
G26  21925388.688   115218700.396       -1910.035          44.438  
G27  19959865.562   104889813.185         857.589          47.875  
G31  23512748.125   123560326.568       -2604.711          41.188  
> 2022 12 07 09 19 07.0000000  0  8                     
G04  21255460.250   111698200.790        -190.272          45.063  
G08  21613150.812   113577910.938        2808.677          45.438  
G09  23029610.875   121021474.347        1762.375          41.250  
G16  20758071.125   109084407.603        -937.404          46.000  
G18  24336530.687   127889320.169        -331.343          36.875  
G26  21925752.063   115220610.317       -1910.457          44.500  
G27  19959702.313   104888955.877         856.590          47.938  
G31  23513243.750   123562931.300       -2605.224          41.063  
> 2022 12 07 09 19 08.0000000  0  8                     
G04  21255496.375   111698391.574        -191.219          45.188  
G08  21612616.500   113575102.644        2808.036          45.375  
G09  23029275.437   121019712.424        1761.632          41.313  
G16  20758249.687   109085345.252        -937.853          46.000  
G18  24336593.437   127889651.967        -332.161          36.938  
G26  21926115.688   115222520.863       -1910.729          44.250  
G27  19959539.250   104888099.849         855.671          47.938  
G31  23513739.750   123565536.791       -2605.690          41.063  
> 2022 12 07 09 19 09.0000000  0  8                     
G04  21255532.438   111698583.112        -191.569          45.188  
G08  21612082.125   113572294.871        2807.789          45.438  
G09  23028940.250   121017951.133        1761.289          41.375  
G16  20758428.000   109086283.217        -937.882          45.813  
G18  24336656.687   127889984.404        -332.530          36.938  
G26  21926479.688   115224431.582       -1910.648          44.063  
G27  19959376.563   104887244.541         855.192          47.688  
G31  23514235.625   123568142.625       -2605.767          41.125  
> 2022 12 07 09 19 10.0000000  0  8                     
G04  21255569.188   111698775.167        -192.475          45.250  
G08  21611547.938   113569487.418        2807.185          45.500  
G09  23028605.250   121016190.270        1760.480          41.500  
G16  20758606.437   109087221.275        -938.380          45.938  
G18  24336719.875   127890317.227        -333.162          36.813  
G26  21926843.062   115226342.241       -1910.819          44.000  
G27  19959213.875   104886389.776         854.443          47.563  
G31  23514731.313   123570748.523       -2606.156          41.250  
> 2022 12 07 09 19 11.0000000  0  8                     
G04  21255606.188   111698968.259        -193.332          45.188  
G08  21611014.000   113566680.764        2806.531          45.375  
G09  23028270.437   121014430.303        1759.747          41.438  
G16  20758785.312   109088159.939        -938.782          45.938  
G18  24336783.750   127890651.033        -333.994          36.688  
G26  21927206.750   115228253.346       -1911.130          43.938  
G27  19959051.187   104885536.076         853.453          47.375  
G31  23515227.500   123573355.061       -2606.577          41.188  
> 2022 12 07 09 19 12.0000000  0  8                     
G04  21255642.938   111699162.022        -193.700          45.125  
G08  21610479.875   113563874.598        2806.410          45.375  
G09  23027935.500   121012670.968        1759.496          41.375  
G16  20758963.875   109089098.883        -938.631          46.000  
G18  24336846.813   127890985.390        -334.253          36.750  
G26  21927570.500   115230164.572       -1910.840          43.750  
G27  19958889.062   104884683.047         853.129          47.563  
G31  23515723.438   123575961.843       -2606.510          41.375  
> 2022 12 07 09 19 13.0000000  0  8                     
G04  21255679.687   111699356.151        -194.497          45.063  
G08  21609945.812   113561068.533        2805.816          45.500  
G09  23027600.750   121010911.863        1758.867          41.375  
G16  20759142.375   109090037.725        -939.068          46.250  
G18  24336910.687   127891320.026        -334.958          36.875  
G26  21927933.875   115232075.582       -1911.147          43.875  
G27  19958726.750   104883830.400         852.352          47.688  
G31  23516219.500   123578568.539       -2606.822          41.375  
> 2022 12 07 09 19 14.0000000  0  8                     
G04  21255717.063   111699551.309        -195.203          45.188  
G08  21609412.312   113558263.315        2805.224          45.563  
G09  23027266.313   121009153.668        1758.201          41.313  
G16  20759321.437   109090977.220        -939.329          46.375  
G18  24336974.875   127891655.565        -335.494          36.750  
G26  21928297.500   115233987.061       -1911.417          44.125  
G27  19958564.688   104882978.796         851.437          47.813  
G31  23516715.875   123581175.853       -2607.250          41.313  
> 2022 12 07 09 19 15.0000000  0  8                     
G04  21255754.125   111699746.780        -195.463          45.313  
G08  21608878.312   113555458.137        2805.104          45.500  
G09  23026931.438   121007395.720        1757.954          41.125  
G16  20759500.125   109091916.553        -939.213          46.313  
G18  24337038.688   127891991.320        -335.906          36.500  
G26  21928661.563   115235898.228       -1911.170          44.188  
G27  19958402.875   104882127.498         851.117          47.813  
G31  23517211.938   123583783.040       -2607.197          41.375  
> 2022 12 07 09 19 16.0000000  0  8                     
G04  21255791.375   111699942.536        -196.461          45.375  
G08  21608344.437   113552653.106        2804.504          45.438  
G09  23026597.188   121005637.969        1757.130          41.063  
G16  20759678.750   109092855.815        -939.745          46.438  
G18  24337103.000   127892327.288        -336.588          36.563  
G26  21929025.062   115237809.167       -1911.338          44.188  
G27  19958240.875   104881276.556         850.369          47.813  
G31  23517708.187   123586390.143       -2607.570          41.500  
> 2022 12 07 09 19 17.0000000  0  8                     
G04  21255828.937   111700139.504        -197.193          45.438  
G08  21607811.188   113549849.059        2803.963          45.500  
G09  23026263.188   121003881.300        1756.517          41.063  
G16  20759857.750   109093795.832        -940.058          46.563  
G18  24337167.250   127892664.395        -337.147          36.313  
G26  21929388.750   115239720.707       -1911.628          44.125  
G27  19958079.000   104880426.794         849.579          47.875  
G31  23518204.625   123588998.010       -2607.898          41.563  
> 2022 12 07 09 19 18.0000000  0  8                     
G04  21255866.313   111700337.193        -197.887          45.375  
G08  21607277.500   113547045.455        2803.559          45.500  
G09  23025928.687   121002125.261        1755.918          41.000  
G16  20760036.562   109094736.124        -940.260          46.625  
G18  24337231.375   127893002.004        -337.864          36.250  
G26  21929752.937   115241632.377       -1911.646          44.125  
G27  19957917.563   104879577.758         848.881          47.938  
G31  23518700.688   123591606.140       -2608.137          41.500  
> 2022 12 07 09 19 19.0000000  0  8                     
G04  21255904.250   111700535.896        -199.297          45.438  
G08  21606744.062   113544242.692        2802.325          45.438  
G09  23025594.500   121000370.163        1754.610          41.125  
G16  20760215.562   109095677.046        -941.292          46.375  
G18  24337296.000   127893340.619        -339.139          36.375  
G26  21930116.562   115243544.509       -1912.492          44.188  
G27  19957756.125   104878729.781         847.374          47.938  
G31  23519197.125   123594214.869       -2609.113          41.625  
> 2022 12 07 09 19 20.0000000  0  8                     
G04  21255942.563   111700735.258        -198.793          45.563  
G08  21606211.000   113541440.345        2803.081          45.500  
G09  23025261.125   120998615.580        1755.227          40.875  
G16  20760395.062   109096618.177        -940.404          46.375  
G18  24337360.250   127893679.713        -338.442          36.500  
G26  21930480.375   115245456.712       -1911.331          44.250  
G27  19957594.750   104877882.460         847.952          47.875  
G31  23519693.625   123596823.834       -2608.191          41.750  
> 2022 12 07 09 19 21.0000000  0  8                     
G04  21255980.187   111700934.229        -199.453          45.500  
G08  21605677.500   113538637.386        2802.507          45.625  
G09  23024927.000   120996860.542        1754.652          40.688  
G16  20760573.937   109097558.513        -940.626          46.188  
G18  24337424.437   127894018.425        -339.136          36.500  
G26  21930844.125   115247367.961       -1911.533          44.188  
G27  19957433.500   104877034.772         847.190          47.813  
G31  23520190.000   123599432.008       -2608.498          41.438  
> 2022 12 07 09 19 22.0000000  0  8                     
G04  21256018.188   111701134.138        -200.565          45.375  
G08  21605144.125   113535835.123        2801.747          45.625  
G09  23024592.938   120995106.345        1753.557          40.750  
G16  20760752.813   109098499.350        -941.391          46.250  
G18  24337489.062   127894357.907        -340.123          36.375  
G26  21931207.750   115249279.558       -1911.986          44.250  
G27  19957272.500   104876188.021         846.104          47.688  
G31  23520686.500   123602040.644       -2609.094          41.438  
> 2022 12 07 09 19 23.0000000  0  8                     
G04  21256056.375   111701335.140        -200.978          45.250  
G08  21604611.187   113533033.781        2801.398          45.563  
G09  23024259.750   120993353.144        1753.318          40.875  
G16  20760932.187   109099440.876        -941.348          46.313  
G18  24337553.812   127894698.435        -340.442          36.313  
G26  21931571.687   115251191.689       -1911.903          44.313  
G27  19957111.375   104875342.395         845.599          47.688  
G31  23521183.187   123604649.993       -2609.199          41.500  
> 2022 12 07 09 19 24.0000000  0  8                     
G04  21256094.500   111701536.386        -201.566          45.125  
G08  21604078.125   113530232.466        2801.169          45.688  
G09  23023925.938   120991600.069        1752.811          41.000  
G16  20761111.187   109100382.227        -941.454          46.250  
G18  24337618.375   127895039.044        -340.709          35.938  
G26  21931935.375   115253103.492       -1911.772          44.313  
G27  19956950.688   104874497.021         845.177          47.813  
G31  23521679.375   123607259.139       -2609.186          41.750  
> 2022 12 07 09 19 25.0000000  0  9                     
G04  21256133.063   111701738.350        -202.102          45.063  
G08  21603545.062   113527431.665        2800.692          45.625  
G09  23023592.312   120989847.638        1752.214          41.125  
G16  20761290.188   109101323.846        -941.627          46.250  
G18  24337683.438   127895380.324        -341.517          35.938  
G22  24733402.000   129974903.9513      -3685.188          21.688  
G26  21932299.063   115255015.418       -1911.946          44.438  
G27  19956790.125   104873652.384         844.338          47.875  
G31  23522176.250   123609868.583       -2609.571          41.875  
> 2022 12 07 09 19 26.0000000  0  9                     
G04  21256171.938   111701941.020        -203.131          45.063  
G08  21603012.375   113524631.333        2799.865          45.438  
G09  23023259.125   120988095.799        1751.339          40.938  
G16  20761469.750   109102265.773        -942.223          46.063  
G18  24337748.750   127895722.140        -342.361          36.063  
G22  24734101.562   129978591.4102      -3687.670          21.750  
G26  21932663.062   115256927.488       -1912.273          44.375  
G27  19956629.313   104872808.456         843.443          47.938  
G31  23522672.750   123612478.298       -2609.954          41.875  
> 2022 12 07 09 19 27.0000000  0  9                     
G04  21256210.250   111702144.628        -203.711          45.125  
G08  21602479.750   113521831.731        2799.585          45.500  
G09  23022925.562   120986344.774        1750.903          40.938  
G16  20761648.812   109103208.194        -942.378          46.188  
G18  24337813.688   127896064.840        -342.795          36.250  
G22  24734804.375   129982279.1092      -3687.231          21.938  
G26  21933026.875   115258839.901       -1912.359          44.375  
G27  19956468.875   104871965.484         842.826          48.000  
G31  23523169.313   123615088.527       -2610.181          41.875  
> 2022 12 07 09 19 28.0000000  0  9                     
G04  21256249.125   111702348.698        -204.344          44.938  
G08  21601946.937   113519032.398        2799.188          45.563  
G09  23022592.312   120984594.165        1750.393          40.875  
G16  20761828.063   109104150.677        -942.589          46.250  
G18  24337879.188   127896407.920        -343.241          36.250  
G22  24735502.938   129985966.5072      -3687.365          21.938  
G26  21933390.562   115260752.237       -1912.397          44.063  
G27  19956308.688   104871123.012         842.153          47.938  
G31  23523666.250   123617698.823       -2610.381          41.938  
> 2022 12 07 09 19 29.0000000  0  9                     
G04  21256288.375   111702553.380        -204.854          44.875  
G08  21601414.250   113516233.412        2798.912          45.563  
G09  23022259.500   120982844.038        1750.002          40.813  
G16  20762007.750   109105093.328        -942.682          46.125  
G18  24337944.500   127896751.468        -343.623          36.375  
G22  24736204.625   129989653.9982      -3688.218          22.125  
G26  21933754.750   115262664.575       -1912.246          44.063  
G27  19956148.313   104870281.151         841.738          48.125  
G31  23524163.000   123620309.274       -2610.476          41.938  
> 2022 12 07 09 19 30.0000000  0  9                     
G04  21256327.125   111702758.701        -205.717          44.750  
G08  21600881.625   113513434.849        2798.294          45.500  
G09  23021926.500   120981094.448        1749.291          40.875  
G16  20762187.125   109106036.193        -943.093          45.875  
G18  24338009.813   127897095.608        -344.467          36.250  
G22  24736905.875   129993341.2652      -3686.916          22.313  
G26  21934118.688   115264576.972       -1912.437          44.063  
G27  19955988.250   104869439.910         840.871          47.938  
G31  23524659.625   123622919.949       -2610.829          41.750  
> 2022 12 07 09 19 31.0000000  0  9                     
G04  21256366.250   111702964.640        -205.956          44.500  
G08  21600348.937   113510636.728        2798.098          45.375  
G09  23021593.500   120979345.398        1749.048          41.063  
G16  20762366.500   109106979.307        -943.015          45.750  
G18  24338075.500   127897440.220        -344.617          36.188  
G22  24737610.812   129997028.607       -3688.608          22.188  
G26  21934482.313   115266489.449       -1912.322          44.000  
G27  19955828.312   104868599.350         840.495          47.938  
G31  23525156.938   123625530.855       -2610.834          41.625  
> 2022 12 07 09 19 32.0000000  0  9                     
G04  21256405.938   111703171.046        -206.819          44.375  
G08  21599816.562   113507838.779        2797.599          45.375  
G09  23021261.000   120977596.691        1748.359          40.813  
G16  20762546.187   109107922.392        -943.352          45.938  
G18  24338141.000   127897785.179        -345.328          36.563  
G22  24738316.875   130000715.529       -3686.742          22.250  
G26  21934846.563   115268401.787       -1912.576          44.000  
G27  19955668.313   104867759.237         839.658          48.000  
G31  23525653.625   123628141.734       -2611.134          41.625  
> 2022 12 07 09 19 33.0000000  0  9                     
G04  21256445.187   111703378.779        -208.209          44.188  
G08  21599284.813   113505042.022        2796.207          45.313  
G09  23020928.375   120975849.263        1747.091          40.813  
G16  20762725.625   109108866.442        -944.350          45.938  
G18  24338206.875   127898131.402        -346.741          36.938  
G22  24739015.688   130004403.220       -3687.966          22.250  
G26  21935210.625   115270314.901       -1913.623          44.125  
G27  19955508.688   104866920.487         838.093          47.938  
G31  23526150.500   123630753.563       -2612.258          41.688  
> 2022 12 07 09 19 34.0000000  0  9                     
G04  21256485.187   111703586.896        -207.604          44.188  
G08  21598752.250   113502245.412        2797.173          45.313  
G09  23020595.875   120974102.109        1747.699          40.563  
G16  20762905.500   109109810.433        -943.441          46.063  
G18  24338273.125   127898477.946        -345.944          37.000  
G22  24739716.313   130008090.1613      -3687.917          22.250  
G26  21935574.438   115272227.825       -1912.282          44.188  
G27  19955349.375   104866082.135         838.807          47.750  
G31  23526647.813   123633365.346       -2611.220          41.688  
> 2022 12 07 09 19 35.0000000  0  9                     
G04  21256524.625   111703794.964        -208.880          44.125  
G08  21598219.750   113499448.526        2796.138          45.375  
G09  23020263.563   120972354.748        1746.522          40.625  
G16  20763085.312   109110753.931        -944.290          46.063  
G18  24338339.063   127898824.268        -347.126          36.938  
G22  24740418.125   130011776.7102      -3687.521          22.188  
G26  21935938.812   115274140.104       -1913.003          44.125  
G27  19955189.625   104865243.744         837.583          47.563  
G31  23527144.500   123635976.636       -2611.963          41.625  
> 2022 12 07 09 19 36.0000000  0  9                     
G04  21256564.437   111704004.538        -209.738          44.313  
G08  21597688.125   113496652.933        2795.436          45.375  
G09  23019931.375   120970608.874        1745.826          40.625  
G16  20763264.937   109111698.532        -944.583          46.063  
G18  24338404.937   127899172.047        -347.959          36.875  
G22  24741120.875   130015464.2592      -3687.211          22.250  
G26  21936302.750   115276053.324       -1913.193          44.000  
G27  19955030.375   104864406.885         836.662          47.563  
G31  23527641.625   123638589.036       -2612.382          41.500  
> 2022 12 07 09 19 37.0000000  0  9                     
G04  21256604.500   111704214.778        -210.277          44.438  
G08  21597156.187   113493857.791        2795.133          45.313  
G09  23019599.125   120968863.518        1745.317          40.625  
G16  20763444.750   109112643.349        -944.731          45.750  
G18  24338471.312   127899520.386        -348.315          36.813  
G22  24741823.875   130019151.1973      -3686.278          22.250  
G26  21936666.812   115277966.640       -1913.170          44.125  
G27  19954871.437   104863570.688         836.095          47.563  
G31  23528138.625   123641201.620       -2612.485          41.563  
> 2022 12 07 09 19 38.0000000  0  9                     
G04  21256644.875   111704425.360        -210.773          44.625  
G08  21596624.125   113491062.756        2794.922          45.375  
G09  23019267.188   120967118.455        1744.965          40.563  
G16  20763624.687   109113588.134        -944.819          45.875  
G18  24338538.063   127899868.947        -348.729          36.938  
G22  24742524.625   130022838.0283      -3684.571          22.125  
G26  21937031.188   115279879.697       -1913.033          44.125  
G27  19954712.250   104862734.849         835.678          47.563  
G31  23528635.500   123643814.146       -2612.518          41.500  
> 2022 12 07 09 19 39.0000000  0  9                     
G04  21256684.750   111704636.794        -211.675          44.813  
G08  21596092.562   113488268.362        2794.203          45.438  
G09  23018935.375   120965374.113        1744.046          40.563  
G16  20763804.188   109114533.334        -945.300          46.125  
G18  24338604.000   127900218.344        -349.593          37.063  
G22  24743223.938   130026525.0043      -3688.128          21.938  
G26  21937394.813   115281793.053       -1913.390          44.188  
G27  19954553.375   104861899.893         834.686          47.625  
G31  23529132.875   123646427.137       -2613.019          41.375  
> 2022 12 07 09 19 40.0000000  0  9                     
G04  21256725.437   111704849.051        -212.302          44.813  
G08  21595560.875   113485474.575        2793.849          45.375  
G09  23018603.187   120963630.483        1743.639          40.375  
G16  20763984.187   109115478.908        -945.471          45.938  
G18  24338670.438   127900568.279        -349.994          36.563  
G22  24743926.500   130030212.2042      -3686.273          21.688  
G26  21937759.063   115283706.652       -1913.395          44.125  
G27  19954394.813   104861065.765         834.056          47.563  
G31  23529630.125   123649040.466       -2613.209          41.438  
> 2022 12 07 09 19 41.0000000  0  9                     
G04  21256765.812   111705061.750        -212.896          44.938  
G08  21595029.000   113482681.011        2793.434          45.250  
G09  23018271.437   120961887.208        1743.052          40.438  
G16  20764164.125   109116424.513        -945.618          46.063  
G18  24338736.875   127900918.671        -350.448          36.250  
G22  24744626.250   130033899.3512      -3686.639          21.438  
G26  21938123.375   115285620.091       -1913.391          44.125  
G27  19954235.937   104860232.089         833.484          47.563  
G31  23530127.375   123651653.831       -2613.395          41.438  
> 2022 12 07 09 19 42.0000000  0  9                     
G04  21256806.125   111705275.003        -213.509          45.063  
G08  21594497.687   113479887.829        2793.096          45.375  
G09  23017939.750   120960144.409        1742.608          40.188  
G16  20764343.938   109117370.277        -945.857          46.063  
G18  24338803.313   127901269.594        -351.128          35.875  
G22  24745326.875   130037586.2002      -3684.487          21.375  
G26  21938487.000   115287533.560       -1913.467          44.188  
G27  19954077.375   104859399.007         832.837          47.688  
G31  23530624.937   123654267.344       -2613.540          41.500  
> 2022 12 07 09 19 43.0000000  0  9                     
G04  21256847.250   111705488.805        -214.106          44.688  
G08  21593966.250   113477094.910        2792.767          45.375  
G09  23017607.813   120958402.060        1742.047          40.188  
G16  20764524.125   109118316.139        -946.007          45.938  
G18  24338870.438   127901620.813        -351.666          35.500  
G22  24746027.687                3      -3685.925          21.313  
G26  21938851.312   115289446.953       -1913.349          44.125  
G27  19953919.188   104858566.442         832.296          47.688  
G31  23531122.188   123656880.957       -2613.650          41.250  
> 2022 12 07 09 19 44.0000000  0  9                     
G04  21256888.062   111705703.400        -215.040          44.625  
G08  21593434.813   113474302.636        2791.958          45.375  
G09  23017276.375   120956660.369        1741.306          40.250  
G16  20764704.250   109119262.401        -946.476          46.000  
G18  24338937.000   127901972.784        -352.312          35.250  
G22  24746729.250                3      -3683.857          21.125  
G26  21939215.438   115291360.596       -1913.807          44.188  
G27  19953760.687   104857734.721         831.306          47.500  
G31  23531619.500   123659494.964       -2614.237          41.438  
> 2022 12 07 09 19 45.0000000  0  9                     
G04  21256928.813   111705918.853        -215.559          44.563  
G08  21592903.687   113471510.955        2791.669          45.375  
G09  23016945.437   120954919.496        1740.846          40.250  
G16  20764884.250   109120209.079        -946.614          46.063  
G18  24339004.000   127902325.539        -352.740          35.188  
G22  24747427.187                3      -3685.100          21.000  
G26  21939579.187   115293274.516       -1913.792          44.063  
G27  19953602.625   104856903.889         830.750          47.563  
G31  23532117.500   123662109.407       -2614.351          41.500  
> 2022 12 07 09 19 46.0000000  0  9                     
G04  21256970.125   111706134.800        -216.163          44.563  
G08  21592372.562   113468719.541        2791.297          45.438  
G09  23016614.000   120953178.977        1740.315          40.063  
G16  20765064.625   109121155.826        -946.836          46.125  
G18  24339071.187   127902678.617        -353.287          35.063  
G22  24748128.250                3      -3690.271          20.813  
G26  21939943.688   115295188.354       -1913.867          44.000  
G27  19953444.813   104856073.509         830.155          47.688  
G31  23532614.875   123664723.874       -2614.457          41.438  
> 2022 12 07 09 19 47.0000000  0  9                     
G04  21257011.313   111706351.486        -216.915          44.500  
G08  21591841.312   113465928.670        2790.714          45.438  
G09  23016282.875   120951439.118        1739.726          40.063  
G16  20765244.812   109122102.905        -947.130          46.188  
G18  24339138.687   127903032.439        -353.955          35.125  
G22  24748827.500                3      -3686.889          20.563  
G26  21940307.937   115297102.320       -1913.966          44.000  
G27  19953286.625   104855243.931         829.338          47.688  
G31  23533112.313   123667338.674       -2614.847          41.438  
> 2022 12 07 09 19 48.0000000  0  9                     
G04  21257052.562   111706568.828        -217.419          44.563  
G08  21591310.250   113463138.238        2790.404          45.375  
G09  23015952.125   120949699.803        1739.102          39.875  
G16  20765425.062   109123050.200        -947.258          46.188  
G18  24339206.125   127903386.764        -354.415          35.125  
G22  24749527.937   130059651.7543      -3687.701          20.563  
G26  21940672.062   115299016.421       -1914.005          44.063  
G27  19953128.812   104854415.012         828.810          47.625  
G31  23533610.250   123669953.728       -2615.008          41.375  
> 2022 12 07 09 19 49.0000000  0  9                     
G04  21257094.250   111706786.636        -217.969          44.563  
G08  21590779.562   113460348.040        2790.059          45.438  
G09  23015621.063   120947960.844        1738.793          39.813  
G16  20765605.313   109123997.534        -947.355          46.250  
G18  24339273.875   127903741.436        -354.820          35.063  
G22  24750228.000   130063338.9243      -3684.646          20.625  
G26  21941036.500   115300930.363       -1913.911          44.000  
G27  19952971.500   104853586.559         828.283          47.500  
G31  23534107.625   123672568.780       -2615.090          41.313  
> 2022 12 07 09 19 50.0000000  0  9                     
G04  21257135.687   111707005.041        -218.811          44.688  
G08  21590248.563   113457558.263        2789.404          45.563  
G09  23015290.187   120946222.458        1738.070          39.938  
G16  20765785.563   109124945.085        -947.767          46.250  
G18  24339341.500   127904096.640        -355.570          35.375  
G22  24750928.375   130067025.498       -3685.847          20.500  
G26  21941400.500   115302844.373       -1914.138          43.938  
G27  19952813.875   104852758.753         827.385          47.375  
G31  23534605.438   123675184.051       -2615.531          41.375  
> 2022 12 07 09 19 51.0000000  0  9                     
G04  21257177.375   111707224.262        -219.533          44.875  
G08  21589717.687   113454769.049        2789.011          45.500  
G09  23014959.562   120944484.713        1737.421          39.938  
G16  20765965.937   109125892.966        -948.087          46.188  
G18  24339409.000   127904452.552        -356.041          35.625  
G22  24751627.062   130070712.333       -3687.579          20.250  
G26  21941764.687   115304758.595       -1914.283          43.938  
G27  19952656.375   104851931.745         826.736          47.375  
G31  23535103.250   123677799.681       -2615.776          41.500  
> 2022 12 07 09 19 52.0000000  0  9                     
G04  21257219.500   111707444.165        -220.041          45.063  
G08  21589187.250   113451980.333        2788.727          45.500  
G09  23014629.063   120942747.579        1737.054          39.875  
G16  20766146.500   109126841.156        -948.166          46.250  
G18  24339476.937   127904809.050        -356.526          35.813  
G22  24752328.125   130074398.905       -3686.768          20.375  
G26  21942129.312   115306672.931       -1914.214          44.063  
G27  19952499.375   104851105.445         826.190          47.500  
G31  23535600.938   123680415.576       -2615.802          41.625  
> 2022 12 07 09 19 53.0000000  0  9                     
G04  21257261.438   111707664.937        -221.249          45.125  
G08  21588656.375   113449192.260        2787.778          45.375  
G09  23014298.313   120941011.265        1735.932          39.750  
G16  20766326.875   109127789.767        -948.918          45.938  
G18  24339545.188   127905166.300        -357.592          35.625  
G22  24753030.938   130078085.808       -3686.901          20.438  
G26  21942493.250   115308587.568       -1914.771          43.938  
G27  19952342.187   104850280.027         825.017          47.438  
G31  23536098.688   123683031.889       -2616.554          41.563  
> 2022 12 07 09 19 54.0000000  0  9                     
G04  21257303.375   111707886.550        -221.202          45.125  
G08  21588125.875   113446404.832        2787.885          45.375  
G09  23013968.375   120939275.630        1736.025          39.813  
G16  20766507.375   109128738.805        -948.530          46.063  
G18  24339613.250   127905524.286        -357.628          36.000  
G22  24753730.313   130081772.2943      -3686.979          20.375  
G26  21942857.687   115310502.478       -1914.342          43.875  
G27  19952185.187   104849455.473         824.899          47.438  
G31  23536596.625   123685648.647       -2616.262          41.438  
> 2022 12 07 09 19 55.0000000  0  9                     
G04  21257345.875   111708107.982        -221.832          45.125  
G08  21587595.750   113443616.990        2787.518          45.375  
G09  23013638.125   120937539.780        1735.576          40.063  
G16  20766688.250   109129687.229        -948.657          46.188  
G18  24339681.687   127905882.038        -357.999          36.313  
G22  24754433.750   130085457.9123      -3686.333          20.375  
G26  21943222.438   115312416.607       -1914.331          43.875  
G27  19952028.562   104848630.757         824.344          47.438  
G31  23537094.500   123688264.819       -2616.394          41.313  
> 2022 12 07 09 19 56.0000000  0  9                     
G04  21257388.063   111708330.385        -222.862          45.063  
G08  21587065.250   113440829.922        2786.753          45.375  
G09  23013307.750   120935804.759        1734.592          40.063  
G16  20766868.750   109130636.220        -949.243          46.250  
G18  24339749.875   127906240.630        -359.053          36.313  
G22  24755134.812   130089144.3273      -3686.739          20.313  
G26  21943586.500   115314331.162       -1914.725          43.813  
G27  19951871.750   104847807.039         823.380          47.375  
G31  23537592.625   123690881.515       -2616.948          41.313  
> 2022 12 07 09 19 57.0000000  0  9                     
G04  21257430.437   111708553.568        -223.141          45.125  
G08  21586534.875   113438043.404        2786.617          45.313  
G09  23012977.938   120934070.437        1734.396          40.000  
G16  20767049.187   109131585.550        -949.099          46.313  
G18  24339818.000   127906599.885        -359.248          36.375  
G22  24755835.625   130092830.999       -3687.769          20.500  
G26  21943950.750   115316245.888       -1914.522          43.750  
G27  19951714.938   104846984.083         822.942          47.375  
G31  23538090.812   123693498.539       -2616.807          41.500  
> 2022 12 07 09 19 58.0000000  0  9                     
G04  21257473.250   111708777.233        -224.033          45.250  
G08  21586004.813   113435257.145        2786.057          45.375  
G09  23012648.063   120932336.483        1733.596          40.063  
G16  20767230.125   109132534.927        -949.590          46.188  
G18  24339886.688   127906959.520        -359.844          36.313  
G22  24756540.000   130096517.7393      -3688.276          20.813  
G26  21944315.313   115318160.528       -1914.716          43.750  
G27  19951558.625   104846161.611         822.156          47.438  
G31  23538588.625   123696115.657       -2617.280          41.563  
> 2022 12 07 09 19 59.0000000  0  9                     
G04  21257515.688   111709001.773        -224.517          45.438  
G08  21585474.562   113432471.539        2785.606          45.438  
G09  23012318.062   120930603.318        1733.161          40.313  
G16  20767410.750   109133484.805        -949.707          46.125  
G18  24339955.563   127907319.982        -360.410          36.563  
G22  24757240.313   130100204.0962      -3685.767          21.313  
G26  21944679.625   115320075.466       -1914.697          44.000  
G27  19951402.125   104845340.074         821.538          47.688  
G31  23539086.938   123698733.227       -2617.364          41.625  
> 2022 12 07 09 20 00.0000000  0  9                     
G04  21257558.500   111709226.859        -225.356          45.563  
G08  21584944.375   113429686.306        2785.058          45.688  
G09  23011988.563   120928870.641        1732.507          40.250  
G16  20767591.250   109134434.763        -950.036          46.188  
G18  24340024.313   127907680.858        -361.075          36.688  
G22  24757939.125   130103890.3532      -3684.956          21.500  
G26  21945043.875   115321990.383       -1914.918          44.250  
G27  19951245.750   104844519.067         820.744          47.688  
G31  23539584.875   123701350.887       -2617.804          41.563  
> 2022 12 07 09 20 01.0000000  0  9                     
G04  21257601.938   111709452.450        -225.627          45.625  
G08  21584414.750   113426901.337        2785.047          45.625  
G09  23011658.688   120927138.332        1732.360          40.313  
G16  20767772.375   109135384.805        -949.889          46.375  
G18  24340092.875   127908042.149        -361.222          36.875  
G22  24758642.688   130107577.0153      -3684.848          21.813  
G26  21945408.500   115323905.231       -1914.622          44.188  
G27  19951089.875   104843698.600         820.437          47.688  
G31  23540083.000   123703968.650       -2617.593          41.625  
> 2022 12 07 09 20 02.0000000  0  9                     
G04  21257644.687   111709678.365        -226.375          45.750  
G08  21583884.688   113424116.478        2784.479          45.500  
G09  23011328.875   120925406.250        1731.596          40.438  
G16  20767953.000   109136334.742        -950.264          46.313  
G18  24340161.562   127908403.623        -361.934          37.000  
G22  24759345.313   130111262.8463      -3683.644          22.063  
G26  21945772.438   115325819.834       -1914.789          44.250  
G27  19950933.625   104842878.465         819.724          47.813  
G31  23540581.312   123706586.272       -2617.879          41.688  
> 2022 12 07 09 20 03.0000000  0  9                     
G04  21257687.750   111709905.254        -227.328          45.500  
G08  21583354.813   113421332.393        2783.716          45.188  
G09  23010999.813   120923675.067        1730.757          40.250  
G16  20768133.750   109137285.258        -950.702          46.250  
G18  24340230.437   127908766.029        -362.757          37.375  
G22  24760045.875   130114948.837       -3685.469          22.250  
G26  21946137.000   115327734.832       -1915.116          44.250  
G27  19950777.687   104842059.328         818.739          47.688  
G31  23541079.187   123709204.506       -2618.430          41.563  
> 2022 12 07 09 20 04.0000000  0  9                     
G04  21257731.250   111710133.097        -228.089          45.375  
G08  21582825.250   113418549.026        2783.240          45.250  
G09  23010670.500   120921944.737        1730.134          40.438  
G16  20768315.125   109138236.273        -951.133          46.125  
G18  24340299.875   127909129.283        -363.411          37.250  
G22  24760746.938   130118635.143       -3683.682          22.438  
G26  21946501.750   115329650.161       -1915.306          44.375  
G27  19950622.250   104841241.135         817.955          47.688  
G31  23541577.313   123711823.210       -2618.710          41.688  
> 2022 12 07 09 20 05.0000000  0  9                     
G04  21257774.687   111710361.584        -228.468          45.375  
G08  21582295.625   113415766.100        2782.932          45.375  
G09  23010341.312   120920214.941        1729.811          40.438  
G16  20768495.938   109139187.523        -951.073          46.125  
G18  24340368.625   127909493.073        -363.718          36.875  
G22  24761449.750   130122321.410       -3684.835          22.625  
G26  21946865.938   115331565.616       -1915.310          44.375  
G27  19950466.562   104840423.627         817.461          47.750  
G31  23542075.875   123714442.146       -2618.837          41.750  
> 2022 12 07 09 20 06.0000000  0  9                     
G04  21257818.000   111710590.257        -228.819          45.438  
G08  21581765.938   113412983.161        2782.890          45.438  
G09  23010012.500   120918485.249        1729.589          40.500  
G16  20768676.812   109140138.529        -951.017          46.188  
G18  24340438.063   127909856.930        -364.022          36.500  
G22  24762150.563   130126007.201       -3684.950          22.875  
G26  21947230.687   115333480.674       -1914.940          44.500  
G27  19950310.937   104839606.301         817.196          47.875  
G31  23542574.062   123717060.849       -2618.685          41.813  
> 2022 12 07 09 20 07.0000000  0  9                     
G04  21257861.937   111710819.590        -230.162          45.500  
G08  21581236.313   113410200.663        2781.938          45.563  
G09  23009683.375   120916756.124        1728.378          40.563  
G16  20768857.938   109141089.785        -951.830          46.313  
G18  24340507.750   127910221.405        -365.177          36.438  
G22  24762851.812   130129692.924       -3687.388          22.938  
G26  21947595.188   115335395.802       -1915.547          44.500  
G27  19950155.812   104838789.674         815.942          48.000  
G31  23543072.437   123719679.802       -2619.488          41.813  
> 2022 12 07 09 20 08.0000000  0  9                     
G04  21257905.562   111711049.996        -230.444          45.563  
G08  21580707.125   113407419.047        2781.700          45.563  
G09  23009354.375   120915027.993        1728.138          40.625  
G16  20769038.938   109142041.711        -951.844          46.313  
G18  24340577.125   127910586.796        -365.429          36.438  
G22  24763554.063   130133379.102       -3685.710          22.813  
G26  21947959.563   115337311.441       -1915.485          44.500  
G27  19950000.562   104837974.139         815.500          48.000  
G31  23543571.062   123722299.403       -2619.465          41.750  
> 2022 12 07 09 20 09.0000000  0  9                     
G04  21257949.563   111711281.015        -231.383          45.625  
G08  21580177.687   113404637.783        2780.976          45.438  
G09  23009025.813   120913300.336        1727.362          40.625  
G16  20769219.937   109142993.766        -952.318          46.313  
G18  24340646.625   127910952.716        -366.226          36.563  
G22  24764254.750   130137065.031       -3685.395          22.938  
