     3.04           OBSERVATION DATA    M: Mixed            RINEX VERSION / TYPE
RTKCONV demo5 b34g                      20230216 093732 UTC PGM / RUN BY / DATE 
format: RTCM 3                                              COMMENT             
log: C:\Users\Salmos\Desktop\logdata\rtcm3.3\base.rtcm3     COMMENT             
1665                                                        MARKER NAME         
                                                            MARKER NUMBER       
                                                            MARKER TYPE         
                                                            OBSERVER / AGENCY   
                    QXWZ VRS                                REC # / TYPE / VERS 
                    ADVNULLANTENNA                          ANT # / TYPE        
 -2845676.4110  4661619.4022  3283215.3241                  APPROX POSITION XYZ 
        0.0000        0.0000        0.0000                  ANTENNA: DELTA H/E/N
G    9 C1C L1C S1C C2W L2W S2W C5Q L5Q S5Q                  SYS / # / OBS TYPES 
R    4 C1C S1C C2P S2P                                      SYS / # / OBS TYPES 
E    9 C1C L1C S1C C7Q L7Q S7Q C5Q L5Q S5Q                  SYS / # / OBS TYPES 
C    9 C2I L2I S2I C7I L7I S7I C6I L6I S6I                  SYS / # / OBS TYPES 
  2023    02    16    09    20   37.0000000     GPS         TIME OF FIRST OBS   
  2023    02    16    09    30   37.0000000     GPS         TIME OF LAST OBS    
G L1C                                                       SYS / PHASE SHIFT   
G L2W  0.00000                                              SYS / PHASE SHIFT   
G L5Q  0.00000                                              SYS / PHASE SHIFT   
E L1C  0.00000                                              SYS / PHASE SHIFT   
E L7Q  0.00000                                              SYS / PHASE SHIFT   
E L5Q  0.00000                                              SYS / PHASE SHIFT   
C L2I                                                       SYS / PHASE SHIFT   
C L7I                                                       SYS / PHASE SHIFT   
C L6I                                                       SYS / PHASE SHIFT   
  0                                                         GLONASS SLOT / FRQ #
 C1C    0.000 C1P    0.000 C2C    0.000 C2P    0.000        GLONASS COD/PHS/BIS 
                                                            END OF HEADER       
> 2023 02 16 09 20 37.0000000  0 37                     
R11  20350247.342          51.000    20350258.421          52.000  
R12  19626527.592          53.000    19626536.044          53.000  
R13  22916328.242          34.000    22916339.285          38.000  
R21  21785891.607          50.000    21785900.095          47.000  
R22  19767166.238          52.000    19767173.439          54.000  
C01  37110798.579   193245640.5171         44.000    37110804.744   149429657.3871         47.000    37110805.512   157028063.9681         45.000  
C02  38347394.847   199684906.7531         40.000    38347398.493   154408880.9161         45.000    38347400.440   162260345.6021         43.000  
C03  36932974.157   192319676.6301         44.000    36932978.356   148713639.9271         48.000    36932979.000   156275394.0331         46.000  
C04  38127674.625   198540779.3971         41.000    38127680.665   153524294.2611         45.000    38127680.325   161330610.7941         43.000  
C07  36080214.008   187879194.7411         46.000    36080213.186   145280141.2911         50.000    36080211.846   152667251.7451         49.000  
C08  38139276.839   198601500.9411         40.000    38139285.702   153571464.6801         45.000    38139282.092   161380130.9241         43.000  
C09  38930323.082   202720329.4311         38.000    38930336.234   156756261.7411         41.000    38930331.266   164726896.9261         38.000  
C10  36705709.991   191136350.6951         45.000    36705712.278   147798803.1711         48.000    36705710.991   155313977.7801         47.000  
C13  38890404.882   202512767.8721         41.000    38890426.789   156595920.0361         42.000    38890421.965   164558370.9461         42.000  
C24  24809694.642   129190617.8361         43.000                                                    24809699.359   104977987.3901         45.000  
C26  22250004.741   115861701.7051         50.000                                                    22250010.638    94147188.0231         52.000  
C29  24280357.358   126434390.8661         45.000                                                    24280360.950   102738408.7831         45.000  
C35  21814677.084   113595082.1891         50.000                                                    21814681.801    92305476.4391         52.000  
C38  37215279.596   193790071.1081         47.000                                                    37215286.083   157470475.9681         49.000  
C40  36289269.533   188967849.2851         48.000                                                    36289273.447   153551927.3611         51.000  
C44  23972856.096   124833180.2271         46.000                                                    23972863.316   101437294.0461         46.000  
C45  23492726.957   122332766.3671         47.000                                                    23492730.459    99405404.1711         49.000  
G01  20248424.610   106406615.9311         48.000    20248429.274    82914434.1001         57.000    20248429.238    79459755.9131         53.000  
G03  22398546.748   117705485.1201         43.000    22398558.309    91718742.7311         48.000    22398561.026    87897206.8771         48.000  
G07  22725904.408   119425295.0301         41.000    22725920.168    93058648.6501         43.000                                                  
G08  24107513.265   126685951.2451         37.000    24107522.593    98716423.7561         24.000    24107523.165    94603278.9641         42.000  
G14  20926757.542   109970976.6331         46.000    20926760.312    85691724.2791         43.000    20926765.243    82121279.6311         52.000  
G17  22272281.248   117041830.2301         44.000    22272284.214    91201534.2631         48.000                                                  
G21  22552002.898   118511942.5131         44.000    22552004.452    92347140.2731         35.000                                                  
G30  22068392.926   115970228.2791         45.000    22068400.574    90366455.5371         49.000    22068402.933    86601203.8331         48.000  
E02  24636356.060   129465000.9881         45.000    24636360.169    99200564.2231         50.000    24636363.600    96678526.2551         48.000  
E10  26459219.086   139044408.6061         40.000    26459224.000   106540696.4861         45.000    26459227.270   103832065.4621         43.000  
E11  23963177.144   125927717.0371         43.000    23963177.269    96490270.2991         47.000    23963180.485    94037164.6281         45.000  
E24  26825169.850   140967056.7091         39.000    26825189.828   108013712.1101         44.000    26825194.795   105267609.7761         42.000  
E25  23499694.911   123491806.5251         48.000    23499699.450    94623648.3461         53.000    23499702.702    92217981.2641         51.000  
E34  26946693.091   141605973.0951         38.000    26946712.514   108503425.2151         45.000    26946715.766   105744889.5681         39.000  
E36  23525288.141   123626657.3681         48.000    23525293.502    94727169.1391         53.000    23525296.754    92318890.9641         50.000  
> 2023 02 16 09 20 38.0000000  0 37                     
R11  20350820.509          51.000    20350831.534          52.000  
R12  19626269.474          53.000    19626277.926          53.000  
R13  22915587.196          34.000    22915598.060          39.000  
R21  21786433.110          50.000    21786441.508          47.000  
R22  19767331.901          52.000    19767339.031          54.000  
C01  37110790.735   193245599.535          44.000    37110796.846   149429625.695          47.000    37110797.632   157028030.676          45.000  
C02  38347391.506   199684889.441          40.000    38347395.133   154408867.529          45.000    38347397.170   162260331.539          43.000  
C03  36932965.062   192319629.751          44.000    36932969.386   148713603.677          48.000    36932969.976   156275355.930          46.000  
C04  38127669.800   198540754.137          41.000    38127675.661   153524274.728          45.000    38127675.465   161330590.269          43.000  
C07  36080146.481   187878843.575          46.000    36080145.785   145279869.752          50.000    36080144.409   152666966.394          49.000  
C08  38138974.477   198599926.478          41.000    38138983.340   153570247.205          45.000    38138979.748   161378851.542          43.000  
C09  38930674.905   202722163.526          38.000    38930688.379   156757679.964          41.000    38930683.536   164728387.269          38.000  
C10  36705612.372   191135842.718          45.000    36705614.838   147798410.372          48.000    36705613.408   155313565.010          48.000  
C13  38890120.568   202511287.430          41.000    38890142.511   156594775.275          42.000    38890137.687   164557167.972          42.000  
C24  24809246.862   129188286.487          43.000                                                    24809251.615   104976092.980          45.000  
C26  22250025.469   115861809.683          50.000                                                    22250031.384    94147275.761          52.000  
C29  24280764.647   126436510.865          45.000                                                    24280768.078   102740131.455          45.000  
C35  21814759.853   113595513.487          50.000                                                    21814764.642    92305826.906          52.000  
C38  37215027.929   193788760.738          47.000                                                    37215034.415   157469411.187          49.000  
C40  36289196.646   188967469.783          48.000                                                    36289200.541   153551618.984          51.000  
C44  23972545.819   124831564.602          46.000                                                    23972553.056   101435981.223          46.000  
C45  23493270.819   122335598.144          47.000                                                    23493274.321    99407705.205          49.000  
G01  20248731.975   106408231.268          48.000    20248736.675    82915692.805          57.000    20248736.621    79460962.168          53.000  
G03  22398064.249   117702949.662          43.000    22398075.810    91716767.063          48.000    22398078.526    87895313.534          48.000  
G07  22726490.387   119428375.450          41.000    22726506.379    93061048.945          43.000                                                  
G08  24107939.459   126688191.899          37.000    24107948.948    98718169.720          24.000    24107949.627    94604952.175          42.000  
G14  20926389.780   109969044.163          46.000    20926392.567    85690218.462          42.000    20926397.499    82119836.545          52.000  
G17  22272034.459   117040533.529          44.000    22272037.479    91200523.849          48.000                                                  
G21  22552569.989   118514922.947          44.000    22552571.615    92349462.689          35.000                                                  
G30  22068701.417   115971849.641          45.000    22068709.101    90367718.929          49.000    22068711.477    86602414.583          48.000  
E02  24635991.639   129463086.119          45.000    24635995.802    99199096.984          50.000    24635999.233    96677096.323          48.000  
E10  26459695.027   139046909.631          40.000    26459699.959   106542612.858          45.000    26459703.247   103833933.105          43.000  
E11  23963506.916   125929450.257          43.000    23963507.095    96491598.348          47.000    23963510.312    94038458.907          45.000  
E24  26825637.751   140969515.612          40.000    26825657.800   108015596.173          45.000    26825662.767   105269445.931          42.000  
E25  23499776.322   123492234.259          48.000    23499780.861    94623976.088          53.000    23499784.077    92218300.674          51.000  
E34  26946234.822   141603566.812          38.000    26946254.531   108501581.437          45.000    26946257.765   105743092.677          39.000  
E36  23525172.939   123626051.812          48.000    23525178.282    94726705.144          53.000    23525181.516    92318438.768          50.000  
> 2023 02 16 09 20 39.0000000  0 37                     
R11  20351394.015          52.000    20351404.915          52.000  
R12  19626011.660          53.000    19626020.183          53.000  
R13  22914845.864          34.000    22914857.103          39.000  
R21  21786974.845          50.000    21786983.047          47.000  
R22  19767497.762          52.000    19767504.927          54.000  
C01  37110783.087   193245559.608          44.000    37110789.198   149429594.821          47.000    37110790.002   157027998.244          45.000  
C02  38347388.343   199684873.183          40.000    38347392.113   154408854.962          45.000    38347394.043   162260318.323          43.000  
C03  36932956.324   192319583.924          44.000    36932960.523   148713568.235          48.000    36932961.202   156275318.695          46.000  
C04  38127665.190   198540729.933          41.000    38127670.926   153524256.012          45.000    38127670.872   161330570.603          43.000  
C07  36080079.187   187878493.453          46.000    36080078.508   145279599.004          50.000    36080077.167   152666681.884          49.000  
C08  38138672.419   198598353.144          41.000    38138681.157   153569030.613          45.000    38138677.619   161377573.084          43.000  
C09  38931027.032   202723998.664          38.000    38931040.791   156759098.998          41.000    38931035.985   164729878.460          38.000  
C10  36705515.093   191135335.786          45.000    36705517.488   147798018.382          48.000    36705516.094   155313153.084          48.000  
C13  38889836.701   202509808.162          41.000    38889858.429   156593631.425          42.000    38889853.605   164555965.955          42.000  
C24  24808799.404   129185956.539          43.000                                                    24808804.175   104974199.709          45.000  
C26  22250046.590   115861919.274          50.000                                                    22250052.433    94147364.813          52.000  
C29  24281172.078   126438631.909          45.000                                                    24281175.420   102741854.975          45.000  
C35  21814842.944   113595946.027          50.000                                                    21814847.715    92306178.380          52.000  
C38  37214776.583   193787451.561          47.000                                                    37214782.998   157468347.376          49.000  
C40  36289123.972   188967091.301          48.000                                                    36289127.850   153551311.437          51.000  
C44  23972235.863   124829950.219          46.000                                                    23972243.064   101434669.409          46.000  
C45  23493814.913   122338431.238          47.000                                                    23493818.415    99410007.315          49.000  
G01  20249039.769   106409848.199          48.000    20249044.361    82916952.751          57.000    20249044.308    79462169.620          53.000  
G03  22397582.107   117700415.634          43.000    22397593.597    91714792.509          48.000    22397596.331    87893421.249          48.000  
G07  22727076.544   119431457.105          41.000    22727092.823    93063450.200          42.000                                                  
G08  24108365.814   126690433.630          37.000    24108375.535    98719916.521          24.000    24108376.303    94606626.199          42.000  
G14  20926022.285   109967113.126          46.000    20926025.108    85688713.759          42.000    20926030.058    82118394.543          52.000  
G17  22271787.866   117039237.973          44.000    22271790.958    91199514.327          48.000                                                  
G21  22553137.295   118517904.558          44.000    22553139.010    92351786.025          35.000                                                  
G30  22069010.247   115973472.544          45.000    22069017.931    90368983.524          49.000    22069020.307    86603626.484          48.000  
E02  24635627.504   129461172.527          45.000    24635631.667    99197630.723          50.000    24635635.080    96675667.342          48.000  
E10  26460171.022   139049411.765          41.000    26460176.097   106544530.066          45.000    26460179.403   103835801.577          43.000  
E11  23963836.957   125931184.745          43.000    23963837.136    96492927.369          47.000    23963840.388    94039754.141          45.000  
E24  26826106.026   140971975.754          40.000    26826125.950   108017481.190          45.000    26826131.007   105271283.012          42.000  
E25  23499858.002   123492663.419          48.000    23499862.505    94624304.922          53.000    23499865.757    92218621.148          51.000  
E34  26945777.017   141601161.771          38.000    26945796.763   108499738.638          45.000    26945799.961   105741296.737          39.000  
E36  23525058.024   123625447.676          48.000    23525063.313    94726242.230          53.000    23525066.565    92317987.623          50.000  
> 2023 02 16 09 20 40.0000000  0 37                     
R11  20351967.414          52.000    20351978.171          52.000  
R12  19625753.846          53.000    19625762.298          53.000  
R13  22914104.210          34.000    22914115.932          39.000  
R21  21787516.098          50.000    21787524.299          47.000  
R22  19767663.390          52.000    19767670.609          54.000  
C01  37110775.242   193245518.298          44.000    37110781.228   149429562.875          47.000    37110782.086   157027964.662          44.000  
C02  38347384.859   199684855.533          40.000    38347388.843   154408841.307          45.000    38347390.702   162260303.981          43.000  
C03  36932947.300   192319536.714          44.000    36932951.428   148713531.744          48.000    36932952.143   156275280.335          46.000  
C04  38127660.115   198540704.345          41.000    38127665.941   153524236.232          45.000    38127665.958   161330549.808          42.000  
C07  36080011.749   187878141.935          46.000    36080011.016   145279327.191          50.000    36080009.640   152666396.254          49.000  
C08  38138370.075   198596778.560          41.000    38138378.795   153567813.044          45.000    38138375.239   161376293.615          43.000  
C09  38931378.873   202725832.421          38.000    38931393.079   156760516.948          41.000    38931388.201   164731368.507          38.000  
C10  36705417.564   191134827.450          45.000    36705419.869   147797625.304          49.000    36705418.440   155312740.024          47.000  
C13  38889552.530   202508327.583          41.000    38889574.133   156592486.556          42.000    38889569.255   164554762.871          42.000  
C24  24808351.713   129183625.567          43.000                                                    24808356.556   104972305.601          45.000  
C26  22250067.515   115862028.018          50.000                                                    22250073.304    94147453.175          51.000  
C29  24281579.188   126440751.567          45.000                                                    24281582.458   102743577.369          44.000  
C35  21814925.749   113596377.363          50.000                                                    21814930.556    92306528.876          52.000  
C38  37214524.969   193786141.133          47.000                                                    37214531.349   157467282.548          48.000  
C40  36289051.013   188966711.410          48.000                                                    36289054.891   153551002.744          51.000  
C44  23971925.656   124828334.638          46.000                                                    23971932.822   101433356.622          46.000  
C45  23494358.738   122341263.218          47.000                                                    23494362.294    99412308.517          48.000  
G01  20249347.223   106411464.256          48.000    20249351.887    82918212.016          57.000    20249351.816    79463376.416          53.000  
G03  22397099.768   117697880.570          43.000    22397111.187    91712817.146          48.000    22397113.903    87891528.199          48.000  
G07  22727662.559   119434537.554          41.000    22727679.052    93065850.521          42.000                                                  
G08  24108792.169   126692674.008          38.000    24108801.836    98721662.265          24.000    24108802.712    94608299.202          42.000  
G14  20925654.684   109965181.077          46.000    20925657.435    85687208.266          42.000    20925662.421    82116951.776          52.000  
G17  22271541.095   117037941.105          44.000    22271544.186    91198503.783          48.000                                                  
G21  22553704.368   118520884.892          43.000    22553706.137    92354108.361          35.000                                                  
G30  22069318.970   115975094.539          45.000    22069326.600    90370247.412          49.000    22069328.995    86604837.711          48.000  
E02  24635263.137   129459257.735          45.000    24635267.300    99196163.549          50.000    24635270.695    96674237.469          48.000  
E10  26460646.856   139051912.546          40.000    26460651.967   106546446.255          45.000    26460655.291   103837669.048          43.000  
E11  23964166.784   125932918.051          44.000    23964166.945    96494255.491          47.000    23964170.250    94041048.497          45.000  
E24  26826573.909   140974434.734          40.000    26826593.922   108019365.305          45.000    26826598.925   105273119.235          42.000  
E25  23499939.538   123493091.566          48.000    23499943.952    94624632.986          53.000    23499947.222    92218940.873          51.000  
E34  26945319.302   141598755.561          38.000    26945338.779   108497894.926          45.000    26945341.978   105739499.897          39.000  
E36  23524942.893   123624842.496          48.000    23524948.129    94725778.532          53.000    23524951.381    92317535.712          50.000  
> 2023 02 16 09 20 41.0000000  0 37                     
R11  20352540.795          51.000    20352551.481          52.000  
R12  19625496.103          53.000    19625504.537          53.000  
R13  22913361.931          34.000    22913374.886          39.000  
R21  21788057.440          50.000    21788065.588          48.000  
R22  19767829.161          52.000    19767836.344          54.000  
C01  37110767.290   193245476.807          44.000    37110773.205   149429530.798          47.000    37110774.098   157027930.942          44.000  
C02  38347381.410   199684837.726          40.000    38347385.555   154408827.540          45.000    38347387.271   162260289.504          43.000  
C03  36932938.187   192319489.331          44.000    36932942.386   148713495.099          48.000    36932943.047   156275241.835          46.000  
C04  38127655.076   198540678.590          41.000    38127660.919   153524216.315          45.000    38127660.991   161330528.885          43.000  
C07  36079944.276   187877790.217          46.000    36079943.436   145279055.231          50.000    36079942.113   152666110.454          49.000  
C08  38138067.642   198595203.902          40.000    38138076.308   153566595.437          45.000    38138072.859   161375014.084          43.000  
C09  38931730.554   202727665.980          38.000    38931745.135   156761934.770          41.000    38931740.364   164732858.429          38.000  
C10  36705319.928   191134318.898          45.000    36705322.179   147797232.064          48.000    36705320.750   155312326.786          47.000  
C13  38889268.216   202506846.908          41.000    38889289.748   156591341.629          42.000    38889284.887   164553559.729          42.000  
C24  24807904.130   129181294.759          43.000                                                    24807909.008   104970411.640          45.000  
C26  22250088.475   115862137.138          50.000                                                    22250094.265    94147541.841          51.000  
C29  24281986.191   126442871.048          45.000                                                    24281989.497   102745299.620          44.000  
C35  21815008.608   113596808.702          50.000                                                    21815013.397    92306879.374          52.000  
C38  37214273.338   193784830.658          47.000                                                    37214279.717   157466217.682          48.000  
C40  36288978.036   188966331.309          48.000                                                    36288981.896   153550693.883          51.000  
C44  23971615.414   124826719.059          46.000                                                    23971622.544   101432043.835          46.000  
C45  23494902.600   122344095.295          47.000                                                    23494906.192    99414609.797          48.000  
G01  20249654.731   106413080.673          48.000    20249659.485    82919471.562          57.000    20249659.413    79464583.485          53.000  
G03  22396617.376   117695345.706          43.000    22396628.794    91710841.941          48.000    22396631.511    87889635.291          48.000  
G07  22728248.681   119437618.011          41.000    22728265.281    93068250.845          42.000                                                  
G08  24109218.792   126694914.245          38.000    24109228.102    98723407.907          24.000    24109229.102    94609972.107          42.000  
G14  20925287.046   109963249.226          46.000    20925289.816    85685702.931          42.000    20925294.802    82115509.168          52.000  
G17  22271294.467   117036644.153          44.000    22271297.397    91197493.173          48.000                                                  
G21  22554271.388   118523865.171          43.000    22554273.282    92356430.656          35.000                                                  
G30  22069627.747   115976716.858          45.000    22069635.306    90371511.552          49.000    22069637.736    86606049.169          48.000  
E02  24634898.751   129457342.981          45.000    24634902.951    99194696.406          50.000    24634906.346    96672807.627          48.000  
E10  26461122.762   139054413.200          40.000    26461127.837   106548362.339          45.000    26461131.178   103839536.422          43.000  
E11  23964496.574   125934651.397          44.000    23964496.807    96495583.637          47.000    23964500.077    94042342.881          45.000  
E24  26827041.773   140976893.737          40.000    26827061.876   108021249.445          45.000    26827066.933   105274955.464          42.000  
E25  23500021.074   123493519.914          48.000    23500025.488    94624961.200          53.000    23500028.704    92219260.741          51.000  
E34  26944861.480   141596349.363          38.000    26944880.868   108496051.234          45.000    26944883.977   105737703.080          39.000  
E36  23524827.781   123624237.489          48.000    23524832.999    94725314.958          53.000    23524836.251    92317083.925          50.000  
> 2023 02 16 09 20 42.0000000  0 37                     
R11  20353114.605          51.000    20353125.202          52.000  
R12  19625238.735          53.000    19625247.223          53.000  
R13  22912621.313          34.000    22912633.929          39.000  
R21  21788599.050          50.000    21788607.216          47.000  
R22  19767995.342          52.000    19768002.401          54.000  
C01  37110759.553   193245436.842          44.000    37110765.521   149429499.893          47.000    37110766.451   157027898.461          44.000  
C02  38347378.372   199684821.436          40.000    38347382.500   154408814.946          45.000    38347384.126   162260276.263          43.000  
C03  36932929.360   192319443.467          44.000    36932933.523   148713459.631          48.000    36932934.220   156275204.562          46.000  
C04  38127650.466   198540654.357          41.000    38127656.291   153524197.576          45.000    38127656.345   161330509.191          43.000  
C07  36079877.070   187877440.043          46.000    36079876.177   145278784.448          50.000    36079874.890   152665825.907          49.000  
C08  38137765.584   198593630.882          40.000    38137774.250   153565379.090          46.000    38137770.748   161373735.886          43.000  
C09  38932082.412   202729501.078          38.000    38932097.601   156763353.757          41.000    38932092.759   164734349.565          38.000  
C10  36705222.541   191133811.829          45.000    36705224.793   147796839.959          49.000    36705223.399   155311914.751          47.000  
C13  38888984.187   202505367.858          41.000    38889005.845   156590197.941          42.000    38889000.841   164552357.880          42.000  
C24  24807456.886   129178965.825          43.000                                                    24807461.765   104968519.191          45.000  
C26  22250109.775   115862248.332          50.000                                                    22250115.618    94147632.192          51.000  
C29  24282393.515   126444992.046          45.000                                                    24282396.839   102747023.103          45.000  
C35  21815091.770   113597241.744          50.000                                                    21815096.541    92307231.259          52.000  
C38  37214021.974   193783521.847          47.000                                                    37214028.371   157465154.173          48.000  
C40  36288905.327   188965952.711          48.000                                                    36288909.205   153550386.241          51.000  
C44  23971305.476   124825105.191          46.000                                                    23971312.624   101430732.441          46.000  
C45  23495446.730   122346929.163          47.000                                                    23495450.428    99416912.535          49.000  
G01  20249962.650   106414699.165          48.000    20249967.475    82920732.727          57.000    20249967.368    79465792.095          53.000  
G03  22396135.306   117692812.742          43.000    22396146.778    91708868.215          48.000    22396149.476    87887743.813          48.000  
G07  22728835.321   119440700.198          41.000    22728851.814    93070652.514          42.000                                                  
G08  24109645.326   126697156.055          38.000    24109654.743    98725154.763          24.000    24109655.851    94611646.175          42.000  
G14  20924919.820   109961319.301          46.000    20924922.554    85684199.093          42.000    20924927.522    82114067.992          52.000  
G17  22271047.981   117035348.831          45.000    22271050.912    91196483.834          49.000                                                  
G21  22554838.747   118526847.125          43.000    22554840.731    92358754.254          35.000                                                  
G30  22069936.899   115978341.196          45.000    22069944.404    90372777.263          49.000    22069946.852    86607262.149          48.000  
E02  24634534.759   129455429.976          45.000    24634538.923    99193230.597          50.000    24634542.282    96671379.080          48.000  
E10  26461598.793   139056915.449          40.000    26461603.993   106550279.644          45.000    26461607.263   103841404.976          43.000  
E11  23964826.776   125936386.492          43.000    23964826.991    96496913.128          47.000    23964830.207    94043638.567          45.000  
E24  26827510.138   140979354.486          40.000    26827530.152   108023134.923          45.000    26827535.298   105276792.997          42.000  
E25  23500102.950   123493950.180          48.000    23500107.364    94625290.880          53.000    23500110.598    92219582.037          51.000  
E34  26944404.104   141593944.906          38.000    26944423.278   108494208.877          44.000    26944426.351   105735907.563          39.000  
E36  23524713.008   123623634.399          48.000    23524718.244    94724852.845          53.000    23524721.478    92316633.563          50.000  
> 2023 02 16 09 20 43.0000000  0 37                     
R11  20353688.290          51.000    20353698.815          52.000  
R12  19624981.278          53.000    19624989.820          53.000  
R13  22911881.178          35.000    22911892.847          39.000  
R21  21789140.463          50.000    21789148.611          47.000  
R22  19768161.328          52.000    19768168.333          54.000  
C01  37110751.601   193245395.540          44.000    37110757.587   149429467.967          47.000    37110758.535   157027864.914          44.000  
C02  38347375.013   199684803.801          40.000    38347379.123   154408801.316          45.000    38347380.731   162260261.940          43.000  
C03  36932920.336   192319396.257          45.000    36932924.499   148713423.134          48.000    36932925.178   156275166.207          46.000  
C04  38127645.480   198540628.783          41.000    38127651.359   153524177.808          45.000    38127651.431   161330488.415          43.000  
C07  36079809.632   187877088.514          46.000    36079808.632   145278512.632          50.000    36079807.363   152665540.268          49.000  
C08  38137463.079   198592056.641          41.000    38137471.906   153564161.793          45.000    38137468.368   161372456.686          43.000  
C09  38932433.950   202731334.794          38.000    38932449.800   156764771.696          41.000    38932444.993   164735839.612          38.000  
C10  36705124.923   191133303.417          45.000    36705127.157   147796446.829          48.000    36705125.745   155311501.627          47.000  
C13  38888699.927   202503887.517          41.000    38888721.638   156589053.263          42.000    38888716.563   164551154.985          42.000  
C24  24807009.374   129176635.906          43.000                                                    24807014.360   104966625.948          45.000  
C26  22250130.932   115862358.725          50.000                                                    22250136.847    94147721.901          51.000  
C29  24282800.643   126447111.701          45.000                                                    24282803.895   102748745.499          45.000  
C35  21815174.718   113597673.630          50.000                                                    21815179.472    92307582.204          52.000  
C38  37213770.396   193782211.832          47.000                                                    37213776.829   157464089.681          48.000  
C40  36288832.314   188965572.738          48.000                                                    36288836.245   153550077.487          51.000  
C44  23970995.288   124823490.171          46.000                                                    23971002.471   101429420.105          46.000  
C45  23495990.663   122349761.960          47.000                                                    23495994.451    99419214.400          49.000  
G01  20250270.516   106416316.821          48.000    20250275.305    82921993.238          57.000    20250275.198    79467000.089          53.000  
G03  22395653.146   117690278.805          43.000    22395664.582    91706893.730          48.000    22395667.262    87885851.602          48.000  
G07  22729421.621   119443781.201          41.000    22729438.132    93073053.264          42.000                                                  
G08  24110072.020   126699396.509          38.000    24110081.080    98726900.571          24.000    24110082.348    94613319.237          42.000  
G14  20924552.290   109959388.402          46.000    20924555.113    85682694.498          43.000    20924560.081    82112626.089          52.000  
G17  22270801.300   117034052.242          45.000    22270804.194    91195473.507          49.000                                                  
G21  22555405.999   118529827.844          43.000    22555407.965    92361076.892          35.000                                                  
G30  22070245.872   115979964.676          45.000    22070253.359    90374042.308          49.000    22070255.790    86608474.479          48.000  
E02  24634170.499   129453515.827          45.000    24634174.663    99191763.907          50.000    24634178.040    96669949.687          48.000  
E10  26462074.716   139059416.376          40.000    26462079.934   106552195.944          45.000    26462083.186   103843272.562          43.000  
E11  23965156.692   125938120.434          44.000    23965156.960    96498241.731          47.000    23965160.176    94044933.394          45.000  
E24  26827978.271   140981814.103          40.000    26827998.248   108025019.526          45.000    26828003.305   105278629.687          42.000  
E25  23500184.665   123494379.461          48.000    23500189.079    94625619.809          53.000    23500192.277    92219902.608          51.000  
E34  26943946.747   141591539.295          38.000    26943965.474   108492365.628          44.000    26943968.422   105734111.188          39.000  
E36  23524598.057   123623030.295          48.000    23524603.275    94724389.967          53.000    23524606.527    92316182.451          50.000  
> 2023 02 16 09 20 44.0000000  0 37                     
R11  20354261.832          51.000    20354272.482          52.000  
R12  19624723.964          53.000    19624732.524          53.000  
R13  22911140.632          34.000    22911151.800          39.000  
R21  21789681.716          50.000    21789689.882          47.000  
R22  19768327.313          52.000    19768334.282          53.000  
C01  37110743.650   193245353.965          44.000    37110749.600   149429435.816          47.000    37110750.529   157027831.125          44.000  
C02  38347371.510   199684785.901          40.000    38347375.602   154408787.467          45.000    38347377.228   162260247.392          43.000  
C03  36932911.258   192319348.784          44.000    36932915.404   148713386.425          48.000    36932916.047   156275127.629          46.000  
C04  38127640.602   198540602.951          41.000    38127646.463   153524157.817          45.000    38127646.463   161330467.412          43.000  
C07  36079742.088   187876736.711          46.000    36079741.087   145278240.587          50.000    36079739.800   152665254.395          49.000  
C08  38137160.717   198590482.202          41.000    38137169.545   153562944.355          45.000    38137166.042   161371177.351          43.000  
C09  38932785.344   202733168.258          37.000    38932801.962   156766189.426          41.000    38932797.102   164737329.444          38.000  
C10  36705027.251   191132794.708          45.000    36705029.520   147796053.463          48.000    36705028.055   155311088.257          47.000  
C13  38888415.399   202502407.008          41.000    38888437.324   156587908.451          42.000    38888432.195   164549951.973          42.000  
C24  24806561.916   129174306.069          43.000                                                    24806566.884   104964732.755          45.000  
C26  22250152.196   115862469.398          50.000                                                    22250158.111    94147811.822          52.000  
C29  24283207.628   126449231.083          45.000                                                    24283210.898   102750467.663          45.000  
C35  21815257.648   113598105.419          50.000                                                    21815262.402    92307933.061          52.000  
C38  37213518.783   193780901.677          47.000                                                    37213525.215   157463025.073          48.000  
C40  36288759.266   188965192.465          48.000                                                    36288763.233   153549768.482          51.000  
C44  23970685.100   124821875.058          46.000                                                    23970692.301   101428107.699          46.000  
C45  23496534.685   122352594.755          47.000                                                    23496538.473    99421516.257          49.000  
G01  20250578.417   106417934.744          48.000    20250583.188    82923253.957          57.000    20250583.081    79468208.274          53.000  
G03  22395170.968   117687744.968          43.000    22395182.404    91704919.325          48.000    22395185.049    87883959.455          48.000  
G07  22730008.029   119446862.123          41.000    22730024.450    93075453.950          43.000                                                  
G08  24110498.589   126701636.676          38.000    24110507.399    98728646.156          24.000    24110508.739    94614992.093          42.000  
G14  20924184.778   109957457.605          46.000    20924187.690    85681189.982          43.000    20924192.676    82111184.256          52.000  
G17  22270554.653   117032755.469          45.000    22270557.441    91194463.036          49.000                                                  
G21  22555973.198   118532808.398          43.000    22555975.163    92363399.400          35.000                                                  
G30  22070554.810   115981588.365          45.000    22070562.333    90375307.518          49.000    22070564.745    86609686.961          48.000  
E02  24633806.329   129451601.604          45.000    24633810.385    99190297.178          50.000    24633813.762    96668520.237          48.000  
E10  26462550.533   139061917.093          40.000    26462555.768   106554112.073          45.000    26462559.092   103845139.978          43.000  
E11  23965486.679   125939854.306          43.000    23965486.894    96499570.284          47.000    23965490.110    94046228.168          45.000  
E24  26828446.368   140984273.628          39.000    26828466.345   108026904.068          45.000    26828471.331   105280466.306          42.000  
E25  23500266.398   123494808.847          48.000    23500270.776    94625948.815          53.000    23500273.992    92220223.249          51.000  
E34  26943489.282   141589133.619          38.000    26943507.687   108490522.334          44.000    26943510.618   105732314.753          39.000  
E36  23524483.106   123622426.283          48.000    23524488.341    94723927.153          53.000    23524491.593    92315731.399          50.000  
> 2023 02 16 09 20 45.0000000  0 37                     
R11  20354835.625          51.000    20354846.382          52.000  
R12  19624466.901          53.000    19624475.460          53.000  
R13  22910399.640          34.000    22910410.808          39.000  
R21  21790223.201          50.000    21790231.331          47.000  
R22  19768493.406          52.000    19768500.393          53.000  
C01  37110735.841   193245312.954          44.000    37110741.720   149429404.099          47.000    37110742.649   157027797.803          45.000  
C02  38347368.008   199684768.541          40.000    38347372.261   154408774.051          45.000    38347373.905   162260233.298          43.000  
C03  36932902.252   192319301.876          45.000    36932906.380   148713350.151          48.000    36932907.041   156275089.505          46.000  
C04  38127635.724   198540577.656          41.000    38127641.657   153524138.273          45.000    38127641.585   161330446.872          43.000  
C07  36079674.614   187876385.461          46.000    36079673.649   145277968.983          50.000    36079672.345   152664968.977          49.000  
C08  38136858.499   198588908.455          41.000    38136867.272   153561727.436          45.000    38136863.806   161369898.543          44.000  
C09  38933137.221   202735002.271          37.000    38933154.268   156767607.585          41.000    38933149.372   164738819.709          39.000  
C10  36704929.579   191132286.517          45.000    36704931.955   147795660.498          48.000    36704930.437   155310675.312          48.000  
C13  38888131.049   202500927.164          41.000    38888153.260   156586764.155          42.000    38888148.007   164548749.474          42.000  
C24  24806114.655   129171977.130          42.000                                                    24806119.604   104962840.311          45.000  
C26  22250173.675   115862581.175          50.000                                                    22250179.571    94147902.655          52.000  
C29  24283614.631   126451351.026          45.000                                                    24283617.972   102752190.297          45.000  
C35  21815340.722   113598537.965          51.000                                                    21815345.493    92308284.547          52.000  
C38  37213267.205   193779592.226          47.000                                                    37213273.745   157461961.046          49.000  
C40  36288686.342   188964812.725          48.000                                                    36288690.291   153549459.914          51.000  
C44  23970375.072   124820260.695          46.000                                                    23970382.273   101426795.899          47.000  
C45  23497078.833   122355428.378          47.000                                                    23497082.656    99423818.799          49.000  
G01  20250886.515   106419553.758          48.000    20250891.268    82924515.527          57.000    20250891.161    79469417.283          53.000  
G03  22394688.880   117685212.049          43.000    22394700.387    91702945.633          48.000    22394703.032    87882068.014          48.000  
G07  22730594.419   119449943.792          41.000    22730610.894    93077855.217          42.000                                                  
G08  24110925.087   126703877.444          38.000    24110933.789    98730392.209          24.000    24110935.255    94616665.385          42.000  
G14  20923817.498   109955527.757          46.000    20923820.446    85679686.206          43.000    20923825.468    82109743.142          52.000  
G17  22270308.132   117031459.349          45.000    22270310.813    91193453.078          49.000                                                  
G21  22556540.521   118535789.651          43.000    22556542.505    92365722.457          35.000                                                  
G30  22070863.855   115983213.116          45.000    22070871.520    90376573.551          49.000    22070873.933    86610900.247          48.000  
E02  24633442.301   129449688.173          45.000    24633446.268    99188831.036          50.000    24633449.645    96667091.379          48.000  
E10  26463026.581   139064418.431          40.000    26463031.763   106556028.680          45.000    26463035.034   103847007.854          43.000  
E11  23965816.809   125941588.967          43.000    23965816.988    96500899.435          47.000    23965820.240    94047523.526          45.000  
E24  26828914.554   140986733.931          40.000    26828934.532   108028789.190          45.000    26828939.678   105282303.508          42.000  
E25  23500348.292   123495239.175          48.000    23500352.670    94626278.547          53.000    23500355.904    92220544.600          51.000  
E34  26943031.960   141586728.718          39.000    26943050.026   108488679.625          44.000    26943052.813   105730518.903          39.000  
E36  23524368.297   123621823.189          48.000    23524373.586    94723465.044          53.000    23524376.785    92315281.041          50.000  
> 2023 02 16 09 20 46.0000000  0 37                     
R11  20355409.113          51.000    20355420.102          52.000  
R12  19624209.658          53.000    19624218.235          53.000  
R13  22909657.736          34.000    22909669.351          39.000  
R21  21790764.257          50.000    21790772.477          47.000  
R22  19768659.266          52.000    19768666.342          54.000  
C01  37110727.657   193245270.465          45.000    37110733.554   149429371.255          47.000    37110734.483   157027763.287          45.000  
C02  38347364.399   199684749.719          40.000    38347368.580   154408759.505          45.000    38347370.295   162260218.003          43.000  
C03  36932893.014   192319253.485          45.000    36932897.106   148713312.729          48.000    36932897.767   156275050.191          46.000  
C04  38127630.506   198540550.913          41.000    38127636.600   153524117.594          45.000    38127636.421   161330425.137          43.000  
C07  36079606.908   187876032.716          46.000    36079605.926   145277696.225          50.000    36079604.639   152664682.343          49.000  
C08  38136555.940   198587333.338          41.000    38136564.768   153560509.474          45.000    38136561.337   161368618.653          44.000  
C09  38933488.687   202736834.798          37.000    38933506.431   156769024.598          42.000    38933501.392   164740308.775          39.000  
C10  36704831.710   191131776.822          45.000    36704834.051   147795266.367          48.000    36704832.550   155310261.139          48.000  
C13  38887846.413   202499445.913          41.000    38887868.839   156585618.776          42.000    38887863.478   164547545.851          42.000  
C24  24805667.232   129169647.074          42.000                                                    24805672.146   104960946.961          46.000  
C26  22250194.957   115862692.034          50.000                                                    22250200.853    94147992.742          52.000  
C29  24284021.330   126453469.492          45.000                                                    24284024.761   102753911.715          45.000  
C35  21815423.544   113598969.214          51.000                                                    21815428.298    92308634.972          52.000  
C38  37213015.519   193778281.435          47.000                                                    37213022.006   157460895.918          49.000  
C40  36288613.115   188964431.481          48.000                                                    36288617.082   153549150.125          51.000  
C44  23970064.866   124818645.038          46.000                                                    23970071.960   101425483.053          47.000  
C45  23497622.748   122358260.801          47.000                                                    23497626.625    99426120.362          49.000  
G01  20251194.326   106421171.816          48.000    20251199.169    82925776.351          57.000    20251199.062    79470625.572          53.000  
G03  22394206.559   117682678.023          43.000    22394218.174    91700971.079          48.000    22394220.819    87880175.740          48.000  
G07  22731180.523   119453024.150          41.000    22731197.087    93080255.460          43.000                                                  
G08  24111351.067   126706116.748          37.000    24111359.948    98732137.117          25.000    24111361.467    94618337.597          42.000  
G14  20923449.968   109953596.801          45.000    20923452.988    85678181.563          43.000    20923458.009    82108301.197          52.000  
G17  22270061.379   117030161.833          45.000    22270063.916    91192442.028          49.000                                                  
G21  22557107.452   118538769.539          43.000    22557109.561    92368044.443          35.000                                                  
G30  22071172.738   115984836.864          45.000    22071180.511    90377838.802          49.000    22071182.906    86612112.780          48.000  
E02  24633077.934   129447773.454          45.000    24633081.883    99187363.921          50.000    24633085.331    96665661.554          48.000  
E10  26463502.434   139066918.320          40.000    26463507.455   106557944.175          45.000    26463510.778   103848874.655          43.000  
E11  23966146.707   125943322.340          43.000    23966146.832    96502227.607          47.000    23966150.102    94048817.932          45.000  
E24  26829382.526   140989192.952          39.000    26829402.468   108030673.344          44.000    26829407.703   105284139.750          42.000  
E25  23500430.007   123495668.391          48.000    23500434.349    94626607.427          53.000    23500437.583    92220865.114          51.000  
E34  26942574.495   141584322.526          39.000    26942592.096   108486835.944          44.000    26942594.848   105728722.095          38.000  
E36  23524253.328   123621218.975          48.000    23524258.581    94723002.077          53.000    23524261.816    92314829.842          50.000  
> 2023 02 16 09 20 47.0000000  0 37                     
R11  20355982.852          51.000    20355994.002          52.000  
R12  19623952.720          53.000    19623961.243          53.000  
R13  22908916.725          34.000    22908928.143          40.000  
R21  21791305.403          49.000    21791313.730          47.000  
R22  19768825.305          52.000    19768832.435          54.000  
C01  37110719.580   193245228.265          44.000    37110725.548   149429338.614          47.000    37110726.388   157027728.991          45.000  
C02  38347360.950   199684731.200          40.000    38347364.988   154408745.167          45.000    38347366.686   162260202.945          43.000  
C03  36932883.865   192319205.385          45.000    36932887.832   148713275.542          48.000    36932888.493   156275011.103          46.000  
C04  38127625.557   198540524.458          41.000    38127631.578   153524097.132          45.000    38127631.328   161330403.640          43.000  
C07  36079539.131   187875680.274          46.000    36079538.220   145277423.689          50.000    36079536.969   152664395.953          49.000  
C08  38136253.400   198585758.626          41.000    38136262.370   153559291.809          45.000    38136258.939   161367339.073          44.000  
C09  38933840.367   202738667.627          37.000    38933858.522   156770441.845          42.000    38933853.429   164741798.078          39.000  
C10  36704733.859   191131267.395          45.000    36704736.254   147794872.446          48.000    36704734.717   155309847.190          48.000  
C13  38887561.956   202497965.032          41.000    38887584.507   156584473.676          42.000    38887579.093   164546342.520          42.000  
C24  24805219.863   129167317.667          42.000                                                    24805224.813   104959054.118          45.000  
C26  22250216.417   115862803.722          50.000                                                    22250222.278    94148083.492          52.000  
C29  24284428.082   126455588.237          45.000                                                    24284431.638   102755633.368          45.000  
C35  21815506.475   113599400.930          51.000                                                    21815511.210    92308985.777          52.000  
C38  37212763.888   193776971.071          47.000                                                    37212770.339   157459831.143          49.000  
C40  36288539.977   188964050.493          48.000                                                    36288543.908   153548840.541          51.000  
C44  23969754.677   124817029.855          46.000                                                    23969761.807   101424170.582          47.000  
C45  23498166.716   122361093.779          47.000                                                    23498170.719    99428422.370          49.000  
G01  20251502.406   106422790.696          48.000    20251507.231    82927037.815          57.000    20251507.106    79471834.478          53.000  
G03  22393724.524   117680144.655          42.000    22393736.068    91698997.040          48.000    22393738.730    87878283.956          48.000  
G07  22731766.716   119456104.992          40.000    22731783.388    93082656.082          43.000                                                  
G08  24111777.243   126708356.390          37.000    24111786.160    98733882.292          25.000    24111787.732    94620010.057          42.000  
G14  20923082.724   109951666.521          45.000    20923085.672    85676677.453          43.000    20923090.693    82106859.754          52.000  
G17  22269814.608   117028864.692          45.000    22269817.092    91191431.272          49.000                                                  
G21  22557674.597   118541749.839          43.000    22557676.705    92370366.752          35.000                                                  
G30  22071481.819   115986461.395          45.000    22071489.646    90379104.666          50.000    22071492.058    86613325.897          48.000  
E02  24632713.709   129445859.237          45.000    24632717.658    99185897.185          50.000    24632721.054    96664232.115          48.000  
E10  26463978.250   139069418.541          40.000    26463983.235   106559859.935          45.000    26463986.559   103850741.704          43.000  
E11  23966476.641   125945056.220          43.000    23966476.784    96503556.171          47.000    23966480.090    94050112.717          45.000  
E24  26829850.587   140991652.454          39.000    26829870.529   108032557.877          44.000    26829875.818   105285976.370          42.000  
E25  23500511.847   123496098.273          48.000    23500516.136    94626936.817          53.000    23500519.406    92221186.134          51.000  
E34  26942116.995   141581916.833          39.000    26942134.328   108484992.632          44.000    26942136.954   105726925.651          38.000  
E36  23524138.466   123620615.394          48.000    23524143.737    94722539.599          53.000    23524146.971    92314379.127          50.000  
> 2023 02 16 09 20 48.0000000  0 37                     
R11  20356556.822          51.000    20356568.026          52.000  
R12  19623695.942          53.000    19623704.429          53.000  
R13  22908175.143          34.000    22908187.115          40.000  
R21  21791846.512          49.000    21791854.982          47.000  
R22  19768991.469          52.000    19768998.617          53.000  
C01  37110711.521   193245186.216          45.000    37110717.454   149429306.104          47.000    37110718.329   157027694.811          45.000  
C02  38347357.412   199684712.802          40.000    38347361.432   154408730.945          45.000    38347363.166   162260187.998          43.000  
C03  36932874.627   192319157.427          45.000    36932878.594   148713238.456          48.000    36932879.273   156274972.138          46.000  
C04  38127620.553   198540498.134          41.000    38127626.486   153524076.782          45.000    38127626.271   161330382.257          43.000  
