     3.04           OBSERVATION DATA    M: Mixed            RINEX VERSION / TYPE
RTKCONV demo5 b34g                      20230216 093726 UTC PGM / RUN BY / DATE 
format: RTCM 3                                              COMMENT             
log: C:\Users\Salmos\Desktop\logdata\rtcm3.3\rover.rtcm3    COMMENT             
0001                                                        MARKER NAME         
                                                            MARKER NUMBER       
                                                            MARKER TYPE         
                                                            OBSERVER / AGENCY   
                                                            REC # / TYPE / VERS 
                                                            ANT # / TYPE        
 -2846121.6407  4661588.7968  3282939.9218                  APPROX POSITION XYZ 
        0.0000        0.0000        0.0000                  ANTENNA: DELTA H/E/N
G    8 C1C L1C D1C S1C C5Q L5Q D5Q S5Q                      SYS / # / OBS TYPES 
E    8 C1X L1X D1X S1X C5Q L5Q D5Q S5Q                      SYS / # / OBS TYPES 
C    4 C2I L2I D2I S2I                                      SYS / # / OBS TYPES 
  2023    02    16    09    20   38.0000000     GPS         TIME OF FIRST OBS   
  2023    02    16    09    30   37.0000000     GPS         TIME OF LAST OBS    
G L1C                                                       SYS / PHASE SHIFT   
G L5Q  0.00000                                              SYS / PHASE SHIFT   
E L1X  0.00000                                              SYS / PHASE SHIFT   
E L5Q  0.00000                                              SYS / PHASE SHIFT   
C L2I                                                       SYS / PHASE SHIFT   
  0                                                         GLONASS SLOT / FRQ #
 C1C    0.000 C1P    0.000 C2C    0.000 C2P    0.000        GLONASS COD/PHS/BIS 
                                                            END OF HEADER       
> 2023 02 16 09 20 38.0000000  0 36                     
G01  20248742.500   106407862.9691      -1615.944          47.438    20248735.938    79460395.6291      -1206.701          47.000  
G03  22397628.750   117700459.9471       2534.935          42.313    22397632.062    87893153.0261       1892.921          44.250  
G07  22726301.312   119427387.3371      -3080.513          41.813                                                                  
G08  24107658.313   126686583.0001      -2240.676          38.563    24107658.625    94603605.1261      -1673.192          41.750  
G14  20926643.312   109970267.2381       1932.328          44.875    20926640.063    82120645.1311       1443.015          47.500  
G17  22272430.813   117042436.6361       1296.422          44.438                                                                  
G19  24558203.938   129054236.2621       2367.260          37.625                                                                  
G21  22552563.000   118514512.3551      -2980.802          43.938                                                                  
G30  22068825.437   115972437.4631      -1621.568          44.938    22068825.750    86602780.4121      -1210.899          46.750  
E02  24636184.937   129464042.1541       1914.734          45.250    24636184.875    96677701.3811       1429.843          44.125  
E10  26459550.938   139045868.7091      -2501.242          43.313    26459553.187   103832959.3701      -1867.796          44.063  
E11  23963383.438   125928430.4531      -1733.538          43.938    23963380.250    94037451.7441      -1294.579          43.438  
E24  26825006.187   140966232.5561      -2459.053          39.938    26825025.375   105267110.3731      -1836.299          39.313  
E25  23499509.938   123490732.1531       -427.938          45.750    23499510.312    92217124.4591       -319.511          47.438  
E34  26946152.875   141603131.7191       2405.686          39.188    26946169.188   105742610.0681       1796.451          40.625  
E36  23525085.750   123625189.0311        604.910          45.938    23525088.313    92317521.9771        451.785          46.625  
C01  37110271.313   193242928.4261         40.837          44.625  
C02  38347340.938   199684668.6211         17.286          40.750  
C03  36932686.750   192318195.9751         46.541          45.375  
C04  38127094.375   198537786.7061         25.139          41.688  
C06  40148905.812   209065741.8491      -1743.248          35.500  
C07  36080126.875   187878692.2751        350.992          45.375  
C09  38930509.688   202721306.9701      -1834.328          38.375  
C10  36705703.187   191136231.0851        507.786          44.875  
C13  38889758.500   202509256.0251       1480.021          40.563  
C16  40106056.688   208842616.3081      -1700.993          34.000  
C19  25755246.188   134114486.1771       2135.091          41.375  
C20  25824549.500   134475225.6801        569.488          39.813  
C24  24809562.125   129189974.2031       2332.243          24.813  
C26  22250054.500   115861862.4351       -108.232          49.125  
C29  24280535.500   126435110.1341      -2120.052          44.500  
C35  21814789.000   113595335.5541       -431.560          48.813  
C38  37214644.188   193786454.3951       1309.891          45.875  
C40  36289124.125   188967002.4991        379.372          46.688  
C44  23972723.250   124832306.9811       1615.139          46.000  
C45  23492824.812   122333238.6661      -2832.032          45.063  
> 2023 02 16 09 20 39.0000000  0 36                     
G01  20249050.000   106409479.474       -1616.571          47.625    20249043.375    79461602.760       -1207.115          47.000  
G03  22397146.313   117697925.513        2534.460          42.313    22397149.813    87891260.462        1892.634          44.313  
G07  22726887.625   119430468.267       -3080.905          41.875                                                                  
G08  24108084.750   126688823.969       -2240.857          38.563    24108085.187    94605278.560       -1673.243          41.875  
G14  20926275.500   109968335.374        1931.880          44.938    20926272.500    82119202.493        1442.725          47.688  
G17  22272183.938   117041140.532        1296.273          44.563                                                                  
G19  24557753.500   129051869.239        2367.141          37.688                                                                  
G21  22553130.375   118517493.458       -2980.943          43.938                                                                  
G30  22069134.250   115974059.590       -1622.142          45.063    22069134.625    86603991.732       -1211.342          47.000  
E02  24635820.813   129462127.825        1914.531          45.188    24635820.562    96676271.847        1429.638          44.063  
E10  26460027.063   139048370.254       -2501.433          43.250    26460029.313   103834827.415       -1867.950          44.125  
E11  23963713.188   125930164.476       -1733.899          43.438    23963710.063    94038746.606       -1294.750          43.250  
E24  26825474.250   140968692.138       -2459.333          39.875    26825493.312   105268947.040       -1836.630          39.250  
E25  23499590.937   123491160.535        -428.307          45.938    23499591.687    92217444.356        -319.851          47.188  
E34  26945695.250   141600726.333        2405.364          39.250    26945711.625   105740813.876        1796.311          40.625  
E36  23524970.625   123624584.550         604.580          46.000    23524973.125    92317070.573         451.438          46.375  
C01  37110264.313   193242887.976          40.736          44.500  
C02  38347337.000   199684651.887          16.877          40.750  
C03  36932677.187   192318149.626          46.594          45.250  
C04  38127089.375   198537761.994          24.940          41.875  
C06  40149240.438   209067485.234       -1743.252          35.500  
C07  36080059.563   187878341.564         350.900          45.438  
C09  38930861.687   202723141.555       -1834.443          38.313  
C10  36705605.812   191135723.564         507.806          44.750  
C13  38889474.688   202507776.368        1479.752          40.500  
C16  40106383.125   208844317.630       -1700.945          34.000  
C19  25754836.250   134112351.412        2134.972          41.500  
C20  25824440.188   134474656.723         569.073          39.813  
C24  24809114.375   129187642.8382       2331.992          24.688  
C26  22250075.312   115861971.255        -108.832          49.063  
C29  24280942.688   126437230.466       -2120.123          44.438  
C35  21814872.062   113595767.474        -431.812          48.813  
C38  37214392.875   193785144.848        1309.646          45.875  
C40  36289051.438   188966623.384         379.270          46.625  
C44  23972413.313   124830692.185        1614.891          45.938  
C45  23493368.563   122336071.119       -2832.359          45.063  
> 2023 02 16 09 20 40.0000000  0 36                     
G01  20249357.625   106411096.556       -1616.893          47.563    20249351.000    79462810.320       -1207.400          46.875  
G03  22396664.062   117695391.531        2534.278          42.500    22396667.375    87889368.223        1892.444          44.313  
G07  22727473.813   119433549.436       -3080.773          41.813                                                                  
G08  24108510.875   126691065.000       -2240.677          38.563    24108511.687    94606952.081       -1673.233          41.750  
G14  20925907.812   109966403.918        1931.681          45.000    20925904.938    82117760.190        1442.488          47.438  
G17  22271937.500   117039844.551        1296.361          44.625                                                                  
G19  24557302.812   129049502.312        2367.329          37.750                                                                  
G21  22553697.750   118520474.685       -2980.811          44.250                                                                  
G30  22069442.750   115975682.256       -1622.444          45.125    22069443.187    86605203.460       -1211.559          46.813  
E02  24635456.437   129460213.760        1914.472          45.000    24635456.187    96674842.511        1429.585          44.063  
E10  26460502.875   139050871.910       -2501.181          43.063    26460505.188   103836695.544       -1867.785          44.000  
E11  23964043.313   125931898.731       -1733.886          43.750    23964040.187    94040041.679       -1294.779          43.250  
E24  26825942.750   140971151.949       -2459.438          40.000    26825961.625   105270783.873       -1836.543          39.375  
E25  23499672.500   123491589.353        -428.565          45.875    23499673.375    92217764.586        -320.017          47.313  
E34  26945237.750   141598321.211        2405.344          39.438    26945253.937   105739017.892        1796.235          40.625  
E36  23524855.625   123623980.458         604.335          46.000    23524858.125    92316619.472         451.297          46.438  
C01  37110256.250   193242847.579          40.630          44.563  
C02  38347333.750   199684635.202          16.997          41.000  
C03  36932668.500   192318103.325          46.561          45.250  
C04  38127084.437   198537737.366          24.857          41.875  
C06  40149575.062   209069228.637       -1742.964          35.438  
C07  36079992.125   187877990.852         351.120          45.375  
C09  38931214.375   202724976.193       -1834.268          38.250  
C10  36705508.000   191135216.056         507.941          44.875  
C13  38889190.437   202506296.854        1479.942          40.500  
C16  40106709.625   208846018.887       -1700.824          34.000  
C19  25754425.938   134110216.864        2134.966          41.500  
C20  25824331.063   134474088.242         568.738          39.750  
C24  24808667.000   129185312.6582       2331.160          24.563  
C26  22250096.688   115862080.691        -109.244          49.000  
C29  24281349.750   126439350.824       -2119.921          44.438  
C35  21814955.312   113596199.635        -431.840          48.813  
C38  37214141.750   193783835.498        1309.709          45.813  
C40  36288978.750   188966244.279         379.537          46.563  
C44  23972103.438   124829077.646        1614.885          45.875  
C45  23493912.375   122338903.866       -2832.446          45.188  
> 2023 02 16 09 20 41.0000000  0 36                     
G01  20249665.562   106412713.370       -1616.516          47.625    20249658.937    79464017.667       -1207.149          47.250  
G03  22396181.938   117692857.071        2534.877          42.500    22396185.062    87887475.616        1892.810          44.188  
G07  22728060.313   119436629.986       -3080.142          41.563                                                                  
G08  24108937.375   126693305.290       -2239.760          38.625    24108938.000    94608625.007       -1672.656          41.750  
G14  20925540.312   109964472.035        1932.260          45.063    20925537.375    82116317.550        1442.878          47.500  
G17  22271690.750   117038547.849        1297.121          44.750                                                                  
G19  24556852.688   129047134.649        2368.015          37.875                                                                  
G21  22554264.875   118523455.241       -2980.181          44.375                                                                  
G30  22069751.688   115977304.606       -1622.122          45.063    22069751.875    86606414.945       -1211.260          46.813  
E02  24635092.250   129458299.091        1915.227          44.875    24635091.875    96673412.737        1430.097          44.250  
E10  26460978.875   139053372.833       -2500.312          43.000    26460981.125   103838563.109       -1867.235          44.063  
E11  23964373.188   125933632.405       -1733.336          43.750    23964370.125    94041336.295       -1294.320          43.188  
E24  26826411.000   140973611.223       -2458.803          40.063    26826429.750   105272620.260       -1836.066          39.375  
E25  23499754.562   123492017.709        -428.037          46.000    23499755.125    92218084.464        -319.648          47.375  
E34  26944779.687   141595915.481        2406.302          39.688    26944796.125   105737221.411        1796.718          40.438  
E36  23524740.813   123623375.910         605.009          46.125    23524743.188    92316168.034         451.763          46.625  
C01  37110247.937   193242806.372          41.497          44.625  
C02  38347330.625   199684617.629          17.740          40.750  
C03  36932660.063   192318056.182          47.069          45.250  
C04  38127080.187   198537711.869          25.534          41.625  
C06  40149909.937   209070971.175       -1742.102          35.438  
C07  36079924.625   187877639.340         351.952          45.438  
C09  38931566.063   202726810.035       -1833.433          38.250  
C10  36705410.313   191134707.730         508.812          44.813  
C13  38888906.500   202504816.576        1480.677          40.563  
C16  40107035.937   208847719.225       -1700.009          33.875  
C19  25754016.250   134108081.627        2135.621          41.563  
C20  25824221.562   134473519.372         569.253          39.875  
C24  24808217.875   129182982.0672       2331.131          24.438  
C26  22250117.438   115862189.851        -108.910          49.063  
C29  24281757.187   126441470.395       -2119.108          44.563  
C35  21815037.938   113596631.168        -431.133          48.938  
C38  37213889.937   193782525.471        1310.432          45.813  
C40  36288905.500   188965864.363         380.425          46.500  
C44  23971792.938   124827462.468        1615.518          45.813  
C45  23494456.750   122341736.092       -2831.852          45.250  
> 2023 02 16 09 20 42.0000000  0 36                     
G01  20249973.063   106414330.427       -1617.822          47.625    20249966.563    79465225.212       -1208.125          47.188  
G03  22395699.687   117690322.718        2533.643          42.438    22395702.875    87885583.091        1892.063          44.250  
G07  22728646.438   119439710.449       -3081.104          41.750                                                                  
G08  24109363.875   126695545.309       -2240.528          38.625    24109364.500    94610297.727       -1673.141          41.875  
G14  20925172.750   109962540.262        1931.042          45.063    20925169.937    82114874.982        1442.101          47.688  
G17  22271443.813   117037250.949        1296.300          44.750                                                                  
G19  24556402.187   129044766.691        2367.313          37.813                                                                  
G21  22554832.125   118526435.636       -2980.993          44.438                                                                  
G30  22070060.438   115978927.152       -1623.303          45.125    22070060.875    86607626.590       -1212.154          47.063  
E02  24634728.000   129456384.328        1914.075          44.875    24634727.500    96671982.881        1429.386          44.188  
E10  26461454.750   139055873.507       -2501.215          43.250    26461457.000   103840430.469       -1867.857          44.188  
E11  23964702.875   125935365.970       -1734.213          43.625    23964699.875    94042630.869       -1295.065          43.188  
E24  26826878.875   140976070.337       -2459.959          40.188    26826897.688   105274456.596       -1836.752          39.313  
E25  23499835.375   123492446.169        -429.199          46.313    23499836.563    92218404.426        -320.511          47.063  
E34  26944322.125   141593509.695        2405.100          39.563    26944338.375   105735424.867        1796.025          40.500  
E36  23524625.750   123622771.454         603.772          45.563    23524628.000    92315716.639         450.851          46.375  
C01  37110240.562   193242764.898          41.240          44.625  
C02  38347327.312   199684599.829          17.124          40.813  
C03  36932650.187   192318008.837          46.891          45.313  
C04  38127075.000   198537686.096          25.320          41.500  
C06  40150244.687   209072713.371       -1742.606          35.438  
C07  36079857.438   187877287.535         351.253          45.438  
C09  38931918.562   202728643.530       -1834.162          38.250  
C10  36705313.000   191134199.063         508.031          44.938  
C13  38888622.500   202503336.127        1479.921          40.688  
C16  40107362.500   208849419.328       -1700.308          33.875  
C19  25753606.312   134105946.262        2134.755          41.625  
C20  25824112.375   134472950.655         567.844          39.875  
C24  24807767.750   129180651.4742       2330.359          24.438  
C26  22250138.375   115862299.278        -110.258          49.125  
C29  24282164.187   126443589.643       -2119.820          44.625  
C35  21815120.875   113597062.591        -432.130          49.063  
C38  37213638.375   193781215.301        1309.474          45.750  
C40  36288832.625   188965484.114         379.610          46.500  
C44  23971483.000   124825847.198        1614.635          45.750  
C45  23495000.250   122344568.314       -2832.867          45.250  
> 2023 02 16 09 20 43.0000000  0 36                     
G01  20250280.875   106415948.558       -1618.074          47.500    20250274.312    79466433.559       -1208.313          47.000  
G03  22395217.313   117687789.290        2533.602          42.438    22395220.625    87883691.257        1891.887          44.125  
G07  22729232.687   119442791.602       -3081.000          41.813                                                                  
G08  24109789.875   126697785.861       -2240.296          38.625    24109790.812    94611970.860       -1673.030          41.875  
G14  20924805.125   109960609.414        1930.976          44.938    20924802.375    82113433.127        1441.936          47.438  
G17  22271197.188   117035954.673        1296.542          44.500                                                                  
G19  24555951.437   129042399.325        2367.656          37.875                                                                  
G21  22555399.250   118529416.685       -2980.825          44.313                                                                  
G30  22070369.187   115980550.749       -1623.548          45.125    22070369.750    86608838.995       -1212.379          46.875  
E02  24634363.562   129454470.362        1914.202          44.813    24634363.188    96670553.633        1429.406          44.063  
E10  26461930.500   139058374.756       -2500.900          43.125    26461932.812   103842298.288       -1867.654          44.063  
E11  23965033.125   125937100.329       -1734.024          43.625    23965029.937    94043926.012       -1295.000          43.375  
E24  26827347.250   140978530.244       -2459.700          40.313    26827365.875   105276293.509       -1836.723          39.438  
E25  23499917.813   123492875.560        -429.176          46.313    23499918.312    92218725.061        -320.550          47.313  
E34  26943864.687   141591104.641        2405.476          39.438    26943880.812   105733628.901        1796.094          40.563  
E36  23524510.938   123622167.884         603.698          45.625    23524513.250    92315265.951         450.833          46.375  
C01  37110232.563   193242723.956          41.234          44.563  
C02  38347323.625   199684582.571          17.229          40.875  
C03  36932641.438   192317962.008          47.099          45.250  
C04  38127069.562   198537660.959          25.247          41.688  
C06  40150579.188   209074455.974       -1742.403          35.375  
C07  36079789.687   187876936.289         351.503          45.563  
C09  38932270.875   202730477.611       -1833.814          38.250  
C10  36705215.125   191133690.948         508.399          45.000  
C13  38888338.000   202501856.282        1480.035          40.625  
C16  40107688.937   208851119.752       -1700.247          33.875  
C19  25753196.062   134103811.556        2134.880          41.688  
C20  25824003.500   134472382.926         567.821          39.938  
C24  24807323.000   129178321.8162       2329.787          24.438  
C26  22250160.000   115862409.810        -110.475          49.125  
C29  24282571.063   126445709.476       -2119.547          44.688  
C35  21815204.000   113597494.745        -431.981          49.063  
C38  37213387.187   193779905.805        1309.654          45.875  
C40  36288759.812   188965104.377         380.039          46.438  
C44  23971173.062   124824232.654        1614.675          45.813  
C45  23495544.437   122347401.337       -2832.902          45.250  
> 2023 02 16 09 20 44.0000000  0 36                     
G01  20250589.062   106417566.551       -1618.099          47.625    20250582.438    79467641.799       -1208.341          47.375  
G03  22394735.250   117685255.588        2533.708          42.500    22394738.562    87881799.215        1891.933          44.000  
G07  22729819.563   119445872.318       -3080.731          41.750                                                                  
G08  24110215.938   126700025.782       -2239.898          38.625    24110217.062    94613643.519       -1672.663          41.813  
G14  20924437.750   109958678.302        1931.126          45.063    20924434.875    82111991.055        1442.011          47.375  
G17  22270950.438   117034657.856        1296.830          44.438                                                                  
G19  24555501.125   129040031.382        2367.907          37.938                                                                  
G21  22555966.437   118532397.239       -2980.524          44.250                                                                  
G30  22070678.313   115982174.180       -1623.591          45.188    22070678.750    86610051.299       -1212.361          46.875  
E02  24633999.375   129452555.937        1914.386          45.063    24633999.000    96669124.028        1429.563          44.188  
E10  26462406.625   139060875.416       -2500.516          43.313    26462408.812   103844165.671       -1867.337          44.125  
E11  23965362.875   125938834.229       -1733.720          43.750    23965359.812    94045220.805       -1294.766          43.313  
E24  26827815.188   140980989.696       -2459.576          40.063    26827834.000   105278130.086       -1836.500          39.375  
E25  23499999.063   123493304.675        -429.140          46.375    23500000.000    92219045.503        -320.450          47.375  
E34  26943406.875   141588699.167        2405.627          39.438    26943423.000   105731832.609        1796.301          40.375  
E36  23524396.312   123621564.034         603.945          45.750    23524398.562    92314815.023         450.886          46.625  
C01  37110224.125   193242682.392          41.622          44.500  
C02  38347321.000   199684564.634          17.480          40.625  
C03  36932632.687   192317914.516          47.448          45.313  
C04  38127065.062   198537635.113          25.566          41.625  
C06  40150914.000   209076197.910       -1741.939          35.375  
C07  36079722.188   187876584.398         351.948          45.563  
C09  38932622.750   202732311.011       -1833.352          38.125  
C10  36705117.438   191133182.160         508.858          45.063  
C13  38888054.187   202500375.866        1480.458          40.563  
C16  40108014.875   208852819.549       -1699.756          33.813  
C19  25752786.187   134101676.400        2135.243          41.750  
C20  25823893.875   134471814.988         567.859          39.938  
C24  24806873.563   129175991.9232       2329.702          24.313  
C26  22250181.062   115862520.243        -110.630          49.125  
C29  24282978.313   126447828.644       -2119.107          44.625  
C35  21815286.687   113597926.438        -431.620          49.125  
C38  37213135.437   193778595.808        1310.008          45.875  
C40  36288686.687   188964724.000         380.484          46.500  
C44  23970862.625   124822617.655        1614.991          45.938  
C45  23496088.750   122350233.976       -2832.686          45.313  
> 2023 02 16 09 20 45.0000000  0 36                     
G01  20250896.937   106419185.013       -1619.209          47.688    20250890.250    79468850.405       -1209.089          47.250  
G03  22394253.312   117682722.138        2532.794          42.625    22394256.750    87879907.369        1891.374          44.188  
G07  22730405.313   119448953.128       -3081.462          41.625                                                                  
G08  24110642.562   126702265.602       -2240.414          38.875    24110643.688    94615316.141       -1673.051          41.938  
G14  20924070.562   109956747.483        1930.137          45.063    20924067.688    82110549.217        1441.390          47.750  
G17  22270703.625   117033361.043        1296.252          44.500                                                                  
G19  24555050.625   129037663.335        2367.436          38.125                                                                  
G21  22556533.937   118535377.814       -2981.153          44.125                                                                  
G30  22070987.250   115983797.990       -1624.567          45.125    22070987.875    86611263.903       -1213.155          47.063  
E02  24633635.438   129450641.619        1913.549          45.250    24633634.812    96667694.528        1429.085          44.250  
E10  26462882.500   139063376.054       -2501.024          43.250    26462884.687   103846033.028       -1867.748          44.188  
E11  23965692.688   125940568.296       -1734.545          43.563    23965689.687    94046515.711       -1295.352          43.250  
E24  26828283.312   140983449.312       -2460.181          39.875    26828302.000   105279966.761       -1837.098          39.313  
E25  23500080.937   123493734.085        -430.074          46.125    23500081.563    92219366.168        -321.136          47.063  
E34  26942949.438   141586293.775        2404.818          39.625    26942965.313   105730036.389        1795.700          40.375  
E36  23524281.312   123620960.445         602.962          45.813    23524283.750    92314364.288         450.248          46.563  
C01  37110216.812   193242640.745          41.319          44.438  
C02  38347317.000   199684546.643          17.340          40.750  
C03  36932623.437   192317866.970          47.083          45.125  
C04  38127060.062   198537609.093          25.469          41.625  
C06  40151248.125   209077939.693       -1742.280          35.438  
C07  36079654.750   187876232.407         351.455          45.563  
C09  38932974.875   202734144.317       -1833.877          38.188  
C10  36705020.000   191132673.237         508.448          45.000  
C13  38887770.250   202498895.504        1479.796          40.563  
C16  40108341.812   208854519.147       -1700.146          33.750  
C19  25752376.375   134099541.259        2134.534          41.750  
C20  25823785.000   134471247.398         566.883          39.938  
C24  24806426.875   129173662.139        2328.567          24.313  
C26  22250202.313   115862631.108        -111.621          49.188  
C29  24283385.250   126449947.733       -2119.655          44.688  
C35  21815369.750   113598358.234        -432.415          49.125  
C38  37212883.812   193777285.859        1309.290          45.750  
C40  36288613.875   188964343.467         379.922          46.500  
C44  23970552.500   124821002.742        1614.330          46.000  
C45  23496632.563   122353066.813       -2833.452          45.375  
> 2023 02 16 09 20 46.0000000  0 36                     
G01  20251205.125   106420804.932       -1620.277          47.875    20251198.375    79470060.094       -1209.941          47.063  
G03  22393771.188   117680190.009        2531.933          42.688    22393774.688    87878016.503        1890.662          44.063  
G07  22730991.625   119452035.064       -3082.058          41.625                                                                  
G08  24111068.875   126704506.399       -2241.035          38.813    24111069.875    94616989.461       -1673.426          41.938  
G14  20923703.125   109954817.966        1929.201          45.125    20923700.250    82109108.341        1440.640          47.438  
G17  22270457.062   117032065.242        1295.665          44.500                                                                  
G19  24554599.750   129035296.319        2367.042          37.938                                                                  
G21  22557101.000   118538359.451       -2981.770          44.063                                                                  
G30  22071296.312   115985423.254       -1625.549          45.000    22071297.000    86612477.543       -1213.852          46.813  
E02  24633271.188   129448728.485        1913.034          45.375    24633270.562    96666265.857        1428.515          44.063  
E10  26463358.375   139065877.648       -2501.796          43.375    26463360.562   103847901.126       -1868.173          44.000  
E11  23966023.000   125942303.482       -1735.233          43.438    23966020.000    94047811.458       -1295.879          43.313  
E24  26828751.687   140985909.984       -2460.939          40.000    26828770.375   105281804.267       -1837.618          39.438  
E25  23500163.000   123494164.810        -431.054          46.188    23500163.562    92219687.810        -321.846          47.313  
E34  26942492.125   141583889.505        2404.244          39.375    26942507.750   105728241.051        1795.216          40.375  
E36  23524166.625   123620358.178         602.103          45.938    23524169.063    92313914.532         449.551          46.500  
C01  37110208.938   193242599.998          40.876          44.688  
C02  38347313.000   199684529.589          17.005          40.938  
C03  36932614.187   192317820.335          46.674          45.250  
C04  38127055.000   198537584.157          25.143          41.688  
C06  40151583.000   209079682.343       -1742.620          35.438  
C07  36079587.188   187875881.301         350.936          45.438  
C09  38933326.750   202735978.580       -1834.337          38.125  
C10  36704922.125   191132165.211         507.910          44.938  
C13  38887485.812   202497416.117        1479.267          40.563  
C16  40108668.063   208856219.589       -1700.647          33.813  
C19  25751966.250   134097407.217        2133.856          41.813  
C20  25823676.625   134470681.211         565.879          39.875  
C24  24805979.813   129171333.762        2327.512          24.250  
C26  22250224.250   115862743.487        -112.708          49.250  
C29  24283792.125   126452067.728       -2120.123          44.688  
C35  21815453.062   113598791.122        -433.091          49.188  
C38  37212632.750   193775976.980        1308.712          45.750  
C40  36288541.063   188963963.847         379.490          46.563  
C44  23970242.750   124819388.957        1613.567          45.938  
C45  23497176.750   122355900.858       -2834.312          45.438  
> 2023 02 16 09 20 47.0000000  0 36                     
G01  20251513.750   106422425.385       -1620.018          47.875    20251507.125    79471270.183       -1209.819          47.500  
G03  22393289.187   117677658.273        2532.286          42.813    22393292.750    87876125.933        1890.871          43.938  
G07  22731578.375   119455117.179       -3081.575          41.625                                                                  
G08  24111495.063   126706747.289       -2240.277          38.750    24111496.187    94618662.850       -1673.067          41.875  
G14  20923336.062   109952888.858        1929.568          45.250    20923333.063    82107667.789        1440.887          47.313  
G17  22270210.500   117030769.538        1296.264          44.625                                                                  
G19  24554149.125   129032929.326        2367.535          38.000                                                                  
G21  22557668.250   118541341.201       -2981.168          44.063                                                                  
G30  22071605.813   115987049.022       -1625.430          44.938    22071606.438    86613691.597       -1213.744          47.000  
E02  24632907.187   129446815.552        1913.564          45.313    24632906.500    96664837.370        1428.830          44.125  
E10  26463834.625   139068379.339       -2501.042          43.500    26463836.688   103849769.244       -1867.672          44.063  
E11  23966353.000   125944038.870       -1734.841          43.500    23966350.375    94049107.369       -1295.476          43.313  
E24  26829219.937   140988370.924       -2460.446          40.250    26829238.688   105283641.934       -1837.211          39.375  
E25  23500245.000   123494595.906        -430.525          46.563    23500245.562    92220009.741        -321.552          47.313  
E34  26942034.500   141581485.484        2404.440          39.688    26942050.125   105726445.830        1795.597          40.313  
E36  23524052.187   123619756.254         602.573          46.250    23524054.687    92313465.057         449.840          46.688  
C01  37110200.875   193242559.245          41.302          44.625  
C02  38347310.437   199684512.529          17.576          40.750  
C03  36932605.500   192317773.707          47.001          45.313  
C04  38127050.812   198537559.182          25.080          41.688  
C06  40151917.687   209081424.872       -1741.882          35.438  
C07  36079519.875   187875530.248         351.620          45.188  
C09  38933678.938   202737812.839       -1833.645          38.188  
C10  36704824.500   191131657.180         508.620          45.000  
C13  38887201.750   202495936.836        1479.768          40.563  
C16  40108994.563   208857919.933       -1700.087          33.750  
C19  25751556.625   134095273.337        2134.381          41.813  
C20  25823567.875   134470115.418         566.268          39.750  
C24  24805535.187   129169005.779        2327.941          24.313  
C26  22250245.562   115862856.400        -112.570          49.125  
C29  24284199.750   126454187.740       -2119.429          44.813  
C35  21815536.000   113599224.216        -432.557          49.125  
C38  37212381.062   193774668.241        1309.296          45.813  
C40  36288467.812   188963584.207         380.247          46.563  
C44  23969932.813   124817775.353        1614.118          45.875  
C45  23497721.188   122358735.157       -2833.802          45.500  
> 2023 02 16 09 20 48.0000000  0 36                     
G01  20251821.937   106424045.779       -1620.713          47.688    20251815.312    79472480.203       -1210.206          47.188  
G03  22392807.813   117675126.302        2531.719          42.813    22392811.125    87874235.207        1890.632          44.063  
G07  22732164.500   119458198.864       -3081.946          41.563                                                                  
G08  24111921.563   126708987.587       -2240.405          38.750    24111922.687    94620335.820       -1673.059          41.938  
G14  20922969.125   109950959.515        1929.097          45.063    20922966.125    82106227.040        1440.619          47.688  
G17  22269963.750   117029473.322        1296.094          44.688                                                                  
G19  24553698.812   129030561.824        2367.399          38.000                                                                  
G21  22558235.875   118544322.481       -2981.417          44.000                                                                  
G30  22071915.125   115988674.670       -1625.930          44.875    22071915.875    86614905.540       -1214.127          47.188  
E02  24632543.250   129444902.197        1913.255          45.313    24632542.375    96663408.589        1428.679          44.250  
E10  26464310.562   139070880.424       -2501.249          43.250    26464312.563   103851636.959       -1867.738          44.063  
E11  23966683.125   125945773.882       -1735.158          43.813    23966680.625    94050403.010       -1295.826          43.250  
E24  26829688.187   140990831.445       -2460.794          40.000    26829706.875   105285479.299       -1837.458          39.313  
E25  23500327.000   123495026.798        -431.109          46.375    23500327.375    92220331.499        -321.960          46.938  
E34  26941577.000   141579081.084        2404.184          39.813    26941592.500   105724650.350        1795.384          40.313  
E36  23523937.375   123619154.079         601.974          46.125    23523940.000    92313015.382         449.478          46.500  
C01  37110193.312   193242517.942          41.265          44.938  
C02  38347307.187   199684494.883          17.285          40.563  
C03  36932596.188   192317726.472          47.011          45.188  
C04  38127045.500   198537533.569          25.057          41.688  
C06  40152251.875   209083166.833       -1742.008          35.438  
C07  36079452.562   187875178.555         351.609          45.188  
C09  38934031.500   202739646.499       -1833.711          38.188  
C10  36704727.125   191131148.547         508.512          45.063  
C13  38886917.938   202494457.033        1479.618          40.500  
C16  40109320.938   208859619.663       -1699.975          33.750  
C19  25751146.937   134093138.977        2134.209          41.813  
C20  25823459.125   134469549.464         565.707          39.813  
C24  24805087.125   129166677.521        2327.810          24.500  
C26  22250267.250   115862969.270        -113.151          49.250  
C29  24284606.625   126456307.144       -2119.520          44.750  
C35  21815619.125   113599656.889        -432.896          49.188  
C38  37212129.438   193773359.043        1309.015          45.875  
C40  36288394.937   188963203.949         380.110          46.688  
C44  23969622.750   124816161.348        1613.817          45.813  
C45  23498265.250   122361569.154       -2834.230          45.563  
> 2023 02 16 09 20 49.0000000  0 36                     
G01  20252130.500   106425667.267       -1621.865          47.563    20252123.813    79473691.058       -1211.121          47.125  
G03  22392325.875   117672595.253        2530.810          42.688    22392329.188    87872345.140        1889.858          44.000  
G07  22732751.375   119461281.318       -3082.685          41.625                                                                  
G08  24112348.125   126711228.455       -2241.010          38.875    24112348.937    94622009.153       -1673.412          41.875  
G14  20922601.938   109949031.108        1928.122          45.125    20922599.062    82104787.013        1439.821          47.438  
G17  22269717.313   117028177.761        1295.346          44.688                                                                  
G19  24553248.313   129028194.870        2366.890          38.000                                                                  
G21  22558803.063   118547304.461       -2982.164          44.188                                                                  
G30  22072224.563   115990301.366       -1627.017          44.813    22072225.250    86616120.283       -1214.940          46.938  
E02  24632179.188   129442989.663        1912.400          45.438    24632178.313    96661980.395        1428.084          44.000  
E10  26464786.562   139073382.133       -2501.881          43.375    26464788.500   103853505.119       -1868.271          43.938  
E11  23967013.563   125947509.661       -1735.989          43.688    23967011.063    94051699.180       -1296.341          43.375  
E24  26830156.812   140993292.730       -2461.273          40.000    26830175.313   105287317.261       -1838.116          39.375  
E25  23500408.750   123495458.613        -432.097          46.563    23500409.563    92220653.962        -322.631          47.188  
E34  26941119.750   141576677.426        2403.377          39.750    26941135.125   105722855.429        1794.797          40.313  
E36  23523822.875   123618552.821         601.021          46.000    23523825.500    92312566.399         448.754          46.500  
C01  37110185.125   193242477.172          40.734          44.688  
C02  38347303.437   199684477.759          17.063          40.438  
C03  36932587.125   192317679.816          46.484          45.500  
C04  38127040.438   198537508.517          24.763          41.563  
C06  40152586.750   209084909.225       -1742.485          35.375  
C07  36079384.750   187874827.442         351.041          45.313  
C09  38934383.750   202741480.699       -1834.217          38.125  
C10  36704629.250   191130640.408         508.044          45.063  
C13  38886633.500   202492977.818        1479.048          40.500  
C16  40109647.062   208861319.779       -1700.438          33.750  
C19  25750736.750   134091005.303        2133.469          41.688  
C20  25823351.000   134468984.551         564.662          39.875  
C24  24804642.250   129164350.173        2327.199          24.563  
C26  22250289.437   115863083.250        -114.335          49.313  
C29  24285013.500   126458427.112       -2120.085          44.750  
C35  21815702.563   113600090.293        -433.591          49.125  
C38  37211878.625   193772050.530        1308.330          45.875  
C40  36288321.937   188962824.209         379.631          46.813  
C44  23969313.250   124814548.086        1613.036          45.938  
C45  23498809.813   122364403.958       -2835.019          45.625  
> 2023 02 16 09 20 50.0000000  0 36                     
G01  20252439.250   106427289.306       -1621.667          47.500    20252432.688    79474902.316       -1210.960          47.438  
G03  22391844.188   117670064.595        2531.157          42.750    22391847.438    87870455.385        1890.053          43.938  
G07  22733338.063   119464363.940       -3082.019          41.563                                                                  
G08  24112774.625   126713469.359       -2240.285          38.813    24112775.250    94623682.552       -1673.017          41.813  
G14  20922235.000   109947103.136        1928.445          45.000    20922232.063    82103347.287        1440.057          47.375  
G17  22269471.000   117026882.331        1296.016          44.938                                                                  
G19  24552797.937   129025828.005        2367.400          38.000                                                                  
G21  22559370.500   118550286.574       -2981.607          44.188                                                                  
G30  22072534.500   115991928.574       -1626.815          44.938    22072535.063    86617335.413       -1214.820          47.063  
E02  24631815.187   129441077.335        1912.791          45.313    24631814.500    96660552.359        1428.380          44.063  
E10  26465262.875   139075883.956       -2501.081          43.313    26465264.937   103855373.348       -1867.882          44.125  
E11  23967343.812   125949245.649       -1735.361          43.563    23967341.312    94052995.561       -1295.981          43.313  
E24  26830625.125   140995754.255       -2460.869          40.000    26830643.750   105289155.383       -1837.707          39.375  
E25  23500491.813   123495890.845        -431.659          46.500    23500491.750    92220976.723        -322.394          47.188  
E34  26940662.438   141574274.033        2404.212          40.000    26940677.625   105721060.682        1795.152          40.313  
E36  23523708.750   123617951.970         601.317          46.125    23523711.187    92312117.715         449.062          46.750  
C01  37110176.937   193242436.423          40.882          44.375  
C02  38347300.312   199684460.663          17.606          40.625  
C03  36932578.500   192317633.131          47.018          45.313  
C04  38127036.000   198537483.536          25.342          41.563  
C06  40152921.500   209086651.596       -1741.812          35.438  
C07  36079317.250   187874476.338         351.694          45.375  
C09  38934735.500   202743314.882       -1833.617          38.000  
C10  36704531.750   191130132.314         508.669          45.063  
C13  38886349.187   202491498.791        1479.559          40.625  
C16  40109973.188   208863019.973       -1699.814          33.750  
C19  25750326.875   134088871.833        2133.954          41.625  
C20  25823242.375   134468420.074         564.903          39.938  
C24  24804197.250   129162023.208        2328.310          24.625  
C26  22250311.062   115863197.807        -114.204          49.250  
C29  24285421.000   126460547.102       -2119.440          44.813  
C35  21815785.688   113600523.925        -433.112          49.188  
C38  37211627.250   193770742.187        1308.895          45.813  
C40  36288248.812   188962444.474         380.346          46.688  
C44  23969003.312   124812935.015        1613.532          45.813  
C45  23499354.312   122367239.049       -2834.554          45.438  
> 2023 02 16 09 20 51.0000000  0 36                     
G01  20252747.750   106428910.943       -1621.746          47.625    20252741.062    79476113.280       -1211.018          47.188  
G03  22391363.000   117667533.415        2531.071          42.500    22391366.000    87868565.227        1890.125          43.938  
G07  22733924.312   119467445.856       -3081.910          41.625                                                                  
G08  24113201.125   126715709.385       -2239.865          38.875    24113201.750    94625355.313       -1672.740          41.875  
G14  20921868.313   109945174.615        1928.478          44.938    20921865.375    82101907.147        1440.110          47.625  
G17  22269224.187   117025586.053        1296.236          44.875                                                                  
G19  24552347.437   129023460.258        2367.754          37.938                                                                  
G21  22559937.938   118553267.886       -2981.247          44.250                                                                  
G30  22072843.938   115993555.385       -1626.879          44.875    22072844.688    86618550.210       -1214.853          47.125  
E02  24631451.438   129439164.318        1913.188          45.313    24631450.688    96659123.803        1428.588          44.125  
E10  26465738.688   139078384.886       -2500.946          43.438    26465741.000   103857240.936       -1867.544          44.063  
E11  23967674.125   125950980.955       -1735.273          43.625    23967671.500    94054291.395       -1295.858          43.188  
E24  26831093.375   140998215.066       -2460.802          40.000    26831112.063   105290992.964       -1837.669          39.313  
E25  23500573.125   123496322.500        -431.749          46.375    23500573.687    92221299.070        -322.322          47.000  
E34  26940204.875   141571869.840        2404.265          40.063    26940220.125   105719265.381        1795.364          40.250  
E36  23523594.250   123617350.551         601.370          45.813    23523596.688    92311668.589         449.086          46.625  
C01  37110169.563   193242394.757          41.338          44.563  
C02  38347296.812   199684442.701          17.817          40.625  
C03  36932569.062   192317585.585          47.223          45.313  
C04  38127031.000   198537457.600          25.606          41.813  
C06  40153255.688   209088392.940       -1741.268          35.313  
C07  36079249.937   187874124.310         352.123          45.500  
C09  38935088.125   202745148.192       -1833.243          38.063  
C10  36704434.250   191129623.240         509.146          45.188  
C13  38886065.063   202490018.899        1479.974          40.563  
C16  40110300.250   208864719.149       -1699.344          33.813  
C19  25749917.250   134086737.571        2134.296          41.563  
C20  25823134.313   134467855.113         564.851          40.000  
C24  24803749.313   129159695.460        2327.519          24.813  
C26  22250333.000   115863311.971        -114.297          49.313  
C29  24285827.750   126462666.163       -2119.096          44.688  
C35  21815868.875   113600956.820        -432.903          49.188  
C38  37211375.750   193769433.070        1309.161          45.875  
C40  36288175.812   188962063.787         380.730          46.750  
C44  23968693.438   124811321.223        1613.739          45.813  
C45  23499898.438   122370073.513       -2834.444          45.500  
> 2023 02 16 09 20 52.0000000  0 36                     
G01  20253056.562   106430533.158       -1622.840          47.625    20253049.812    79477324.670       -1211.896          47.188  
G03  22390881.250   117665002.612        2530.245          42.563    22390884.312    87866675.350        1889.483          44.000  
G07  22734510.875   119470527.993       -3082.646          41.500                                                                  
G08  24113627.312   126717949.430       -2240.413          39.000    24113627.813    94627028.070       -1673.093          41.688  
G14  20921501.125   109943246.494        1927.551          44.875    20921498.375    82100467.322        1439.458          47.563  
G17  22268977.500   117024289.894        1295.669          44.875                                                                  
G19  24551897.000   129021092.602        2367.225          37.625                                                                  
G21  22560505.187   118556249.341       -2981.894          44.063                                                                  
G30  22073153.375   115995182.674       -1627.904          44.750    22073154.250    86619765.397       -1215.668          46.938  
E02  24631087.312   129437251.501        1912.334          45.250    24631086.687    96657695.434        1428.031          44.063  
E10  26466214.625   139080885.879       -2501.349          43.375    26466217.063   103859108.558       -1867.948          43.938  
E11  23968004.687   125952716.502       -1735.846          43.688    23968001.875    94055587.420       -1296.325          43.313  
E24  26831561.875   141000676.118       -2461.642          40.125    26831580.563   105292830.698       -1838.100          39.500  
E25  23500655.937   123496754.594        -432.634          46.250    23500656.125    92221621.728        -323.074          47.250  
E34  26939747.625   141569465.861        2403.651          39.625    26939762.688   105717470.250        1794.767          40.375  
E36  23523479.687   123616749.504         600.501          45.563    23523482.187    92311219.772         448.423          46.500  
C01  37110161.188   193242353.166          41.202          44.500  
C02  38347293.063   199684424.694          17.729          40.813  
C03  36932559.875   192317538.064          47.112          45.000  
C04  38127026.000   198537431.720          25.668          41.625  
C06  40153590.312   209090134.224       -1741.755          35.438  
C07  36079182.062   187873772.290         351.609          45.563  
C09  38935439.813   202746981.479       -1833.756          38.000  
C10  36704336.250   191129114.211         508.613          45.188  
C13  38885780.688   202488539.141        1479.278          40.563  
C16  40110626.125   208866418.178       -1699.530          33.750  
C19  25749507.313   134084603.510        2133.625          41.563  
C20  25823026.063   134467290.607         563.950          40.125  
C24  24803302.437   129157368.354        2326.716          24.813  
C26  22250355.250   115863426.726        -115.360          49.313  
C29  24286234.625   126464785.266       -2119.527          44.688  
C35  21815952.125   113601389.909        -433.596          49.125  
C38  37211124.688   193768124.101        1308.491          46.000  
C40  36288102.938   188961683.109         380.253          46.750  
C44  23968383.750   124809707.651        1613.109          45.813  
C45  23500442.937   122372908.278       -2835.283          45.500  
> 2023 02 16 09 20 53.0000000  0 36                     
G01  20253365.500   106432156.463       -1623.799          47.750    20253358.937    79478536.871       -1212.490          47.375  
G03  22390399.625   117662472.758        2529.303          42.625    22390402.750    87864786.165        1888.934          43.938  
G07  22735097.750   119473610.851       -3083.194          41.313                                                                  
G08  24114053.687   126720190.068       -2240.917          39.000    24114054.125    94628701.262       -1673.304          41.688  
G14  20921134.125   109941319.295        1926.711          45.000    20921131.500    82099028.201        1438.806          47.375  
G17  22268731.125   117022994.399        1295.195          44.688                                                                  
G19  24551446.250   129018725.510        2366.701          37.438                                                                  
G21  22561072.625   118559231.492       -2982.387          43.938                                                                  
G30  22073463.438   115996811.031       -1628.787          44.625    22073464.250    86620981.381       -1216.292          47.188  
E02  24630723.375   129435339.489        1911.629          45.250    24630722.750    96656267.610        1427.567          44.000  
E10  26466690.812   139083387.524       -2501.893          43.563    26466693.312   103860976.651       -1868.338          44.188  
E11  23968335.000   125954452.833       -1736.822          43.500    23968332.188    94056884.047       -1296.850          43.188  
E24  26832030.062   141003137.932       -2462.236          40.063    26832048.938   105294669.008       -1838.640          39.438  
E25  23500738.063   123497187.590        -433.456          46.375    23500738.563    92221945.069        -323.696          47.313  
E34  26939290.188   141567062.763        2402.653          39.688    26939305.250   105715675.723        1794.250          40.375  
E36  23523365.625   123616149.388         599.708          45.688    23523368.000    92310771.628         447.807          46.563  
C01  37110153.187   193242312.072          40.959          44.438  
C02  38347290.625   199684407.331          17.514          40.688  
C03  36932551.375   192317491.082          47.004          44.938  
C04  38127021.375   198537406.381          25.297          41.625  
C06  40153924.875   209091876.017       -1742.053          35.375  
C07  36079114.625   187873420.840         351.191          45.625  
C09  38935791.750   202748815.345       -1834.230          37.938  
C10  36704238.437   191128605.665         508.229          45.125  
C13  38885496.250   202487060.007        1478.791          40.563  
C16  40110952.312   208868117.754       -1699.883          33.813  
C19  25749097.500   134082470.147        2133.076          41.563  
C20  25822917.563   134466727.117         562.952          40.188  
C24  24802855.000   129155042.093        2327.148          24.813  
C26  22250377.188   115863542.598        -116.289          49.188  
C29  24286641.938   126466904.900       -2119.910          44.625  
C35  21816035.250   113601823.729        -434.232          49.063  
C38  37210873.125   193766815.844        1307.925          46.063  
C40  36288029.750   188961302.946         379.816          46.875  
C44  23968074.000   124808094.809        1612.540          45.750  
C45  23500987.313   122375743.845       -2835.954          45.375  
> 2023 02 16 09 20 54.0000000  0 36                     
G01  20253674.437   106433780.925       -1624.391          47.750    20253667.938    79479749.944       -1213.047          47.125  
G03  22389918.625   117659943.883        2529.080          42.750    22389921.687    87862897.776        1888.541          43.938  
G07  22735684.375   119476694.513       -3083.459          41.125                                                                  
G08  24114480.312   126722431.348       -2240.947          39.063    24114480.688    94630374.936       -1673.473          41.750  
G14  20920768.000   109939393.169        1926.345          44.938    20920765.062    82097589.844        1438.472          47.625  
G17  22268484.375   117021699.601        1295.038          44.688                                                                  
G19  24550995.937   129016359.110        2366.611          37.688                                                                  
G21  22561640.375   118562214.417       -2982.672          43.875                                                                  
G30  22073773.437   115998440.525       -1629.484          44.625    22073774.312    86622198.193       -1216.763          47.188  
E02  24630360.000   129433428.302        1911.525          45.375    24630359.250    96654840.439        1427.355          44.125  
E10  26467166.875   139085889.817       -2501.905          43.438    26467169.437   103862845.238       -1868.404          44.125  
