$GPRMC,092020.00,A,3110.7593773,N,12124.3620664,E,0.21,182.33,160223,0.0,E,R,V*56
$GPGGA,092020.00,3110.7593773,N,12124.3620664,E,5,24,1.0,21.124,M,10.843,M,1.0,0000*7C
$GNGSA,A,3,01,03,07,08,14,17,21,30,,,,,1.2,0.6,1.1,1*3A
$GNGSA,A,3,01,02,03,04,07,09,10,13,19,24,26,29,1.2,0.6,1.1,4*39
$GPGSV,3,1,09,01,65,033,47,03,35,134,42,07,25,198,42,08,18,075,39,0*65
$GPGSV,3,2,09,14,58,323,45,17,37,297,44,19,11,276,00,21,38,041,44,0*6E
$GPGSV,3,3,09,30,39,241,45,,,,,,,,,,,,,0*53
$GBGSV,5,1,20,01,46,141,45,02,35,235,41,03,51,200,45,04,35,122,42,0*73
$GBGSV,5,2,20,06,13,204,00,07,71,345,45,09,20,219,38,10,60,323,45,0*7C
$GBGSV,5,3,20,13,27,194,41,16,12,202,00,19,16,115,00,20,10,068,00,0*7E
$GBGSV,5,4,20,24,24,314,25,26,60,267,49,29,28,051,45,35,64,344,49,0*77
$GBGSV,5,5,20,38,49,180,46,40,64,018,47,44,32,269,46,45,39,175,45,0*73
$GPRMC,092021.00,A,3110.7595594,N,12124.3619943,E,0.01,182.33,160223,0.0,E,R,V*58
$GPGGA,092021.00,3110.7595594,N,12124.3619943,E,5,24,1.0,19.945,M,10.843,M,1.0,0000*74
$GNGSA,A,3,01,03,07,08,14,17,21,30,,,,,1.2,0.6,1.1,1*3A
$GNGSA,A,3,01,02,03,04,07,09,10,13,19,24,26,29,1.2,0.6,1.1,4*39
$GPGSV,3,1,09,01,65,033,48,03,35,134,42,07,25,198,42,08,18,075,39,0*6A
$GPGSV,3,2,09,14,58,323,45,17,37,297,45,19,11,276,00,21,38,041,44,0*6F
$GPGSV,3,3,09,30,39,241,45,,,,,,,,,,,,,0*53
$GBGSV,5,1,20,01,46,141,45,02,35,235,41,03,51,200,45,04,35,122,42,0*73
$GBGSV,5,2,20,06,13,204,00,07,71,345,45,09,20,219,38,10,60,323,45,0*7C
$GBGSV,5,3,20,13,27,194,41,16,12,202,00,19,16,115,00,20,10,068,00,0*7E
$GBGSV,5,4,20,24,24,314,25,26,60,267,49,29,28,051,44,35,64,344,49,0*76
$GBGSV,5,5,20,38,49,180,46,40,64,018,47,44,32,269,46,45,39,175,45,0*73
$GPRMC,092022.00,A,3110.7594763,N,12124.3620824,E,0.03,182.33,160223,0.0,E,R,V*58
$GPGGA,092022.00,3110.7594763,N,12124.3620824,E,5,24,1.0,20.241,M,10.843,M,1.0,0000*73
$GNGSA,A,3,01,03,07,08,14,17,21,30,,,,,1.2,0.6,1.1,1*3A
$GNGSA,A,3,01,02,03,04,07,09,10,13,19,24,26,29,1.2,0.6,1.1,4*39
$GPGSV,3,1,09,01,65,033,48,03,35,134,43,07,25,198,42,08,18,075,39,0*6B
$GPGSV,3,2,09,14,58,323,45,17,37,297,45,19,11,276,00,21,38,041,44,0*6F
$GPGSV,3,3,09,30,39,241,45,,,,,,,,,,,,,0*53
$GBGSV,5,1,20,01,46,141,45,02,35,235,41,03,51,200,45,04,35,122,42,0*73
$GBGSV,5,2,20,06,13,204,00,07,71,345,45,09,20,219,38,10,60,323,45,0*7C
$GBGSV,5,3,20,13,27,194,41,16,12,202,00,19,16,115,00,20,10,068,00,0*7E
$GBGSV,5,4,20,24,24,314,25,26,60,267,49,29,28,051,44,35,64,344,49,0*76
$GBGSV,5,5,20,38,49,180,46,40,64,018,47,44,32,269,46,45,39,175,45,0*73
$GPRMC,092023.00,A,3110.7594666,N,12124.3621032,E,0.02,182.33,160223,0.0,E,R,V*52
$GPGGA,092023.00,3110.7594666,N,12124.3621032,E,5,24,1.0,20.367,M,10.843,M,1.0,0000*7D
$GNGSA,A,3,01,03,07,08,14,17,21,30,,,,,1.2,0.6,1.1,1*3A
$GNGSA,A,3,01,02,03,04,07,09,10,13,19,24,26,29,1.2,0.6,1.1,4*39
$GPGSV,3,1,09,01,65,033,48,03,35,134,43,07,25,198,42,08,18,075,39,0*6B
$GPGSV,3,2,09,14,58,323,45,17,37,297,45,19,11,276,00,21,38,041,44,0*6F
$GPGSV,3,3,09,30,39,241,45,,,,,,,,,,,,,0*53
$GBGSV,5,1,20,01,46,141,45,02,35,235,41,03,51,200,45,04,35,122,42,0*73
$GBGSV,5,2,20,06,13,204,00,07,71,345,45,09,20,219,38,10,60,323,45,0*7C
$GBGSV,5,3,20,13,27,194,41,16,12,202,00,19,16,115,00,20,10,068,00,0*7E
$GBGSV,5,4,20,24,24,314,24,26,60,267,49,29,28,051,45,35,64,344,49,0*76
$GBGSV,5,5,20,38,49,180,46,40,64,018,47,44,32,269,46,45,39,175,45,0*73
$GPRMC,092024.00,A,3110.7594761,N,12124.3620943,E,0.04,182.33,160223,0.0,E,R,V*5B
$GPGGA,092024.00,3110.7594761,N,12124.3620943,E,5,24,1.0,20.317,M,10.843,M,1.0,0000*75
$GNGSA,A,3,01,03,07,08,14,17,21,30,,,,,1.2,0.6,1.1,1*3A
$GNGSA,A,3,01,02,03,04,07,09,10,13,19,24,26,29,1.2,0.6,1.1,4*39
$GPGSV,3,1,09,01,65,033,48,03,35,134,42,07,25,198,42,08,18,075,39,0*6A
$GPGSV,3,2,09,14,58,323,45,17,37,297,45,19,11,276,00,21,38,041,44,0*6F
$GPGSV,3,3,09,30,39,241,45,,,,,,,,,,,,,0*53
$GBGSV,5,1,20,01,46,141,45,02,35,235,41,03,51,200,45,04,35,122,42,0*73
$GBGSV,5,2,20,06,13,204,00,07,71,345,45,09,20,219,38,10,60,323,45,0*7C
$GBGSV,5,3,20,13,27,194,41,16,12,202,00,19,16,115,00,20,10,068,00,0*7E
$GBGSV,5,4,20,24,24,314,24,26,60,267,49,29,28,051,45,35,64,344,49,0*76
$GBGSV,5,5,20,38,49,180,46,40,64,018,47,44,32,269,46,45,39,175,45,0*73
$GPRMC,092025.00,A,3110.7594631,N,12124.3621153,E,0.01,182.33,160223,0.0,E,R,V*53
$GPGGA,092025.00,3110.7594631,N,12124.3621153,E,5,24,1.0,20.390,M,10.843,M,1.0,0000*77
$GNGSA,A,3,01,03,07,08,14,17,21,30,,,,,1.2,0.6,1.1,1*3A
$GNGSA,A,3,01,02,03,04,07,09,10,13,19,24,26,29,1.2,0.6,1.1,4*39
$GPGSV,3,1,09,01,65,033,48,03,35,134,42,07,25,198,42,08,18,075,39,0*6A
$GPGSV,3,2,09,14,58,323,45,17,37,297,45,19,11,276,00,21,38,041,44,0*6F
$GPGSV,3,3,09,30,39,241,45,,,,,,,,,,,,,0*53
$GBGSV,5,1,20,01,46,141,45,02,35,235,41,03,51,200,45,04,35,122,42,0*73
$GBGSV,5,2,20,06,13,204,00,07,71,345,46,09,20,219,38,10,60,323,45,0*7F
$GBGSV,5,3,20,13,27,194,41,16,12,202,00,19,16,115,00,20,10,068,00,0*7E
$GBGSV,5,4,20,24,24,314,24,26,60,267,49,29,28,051,45,35,64,344,49,0*76
$GBGSV,5,5,20,38,49,180,46,40,64,018,46,44,32,269,46,45,39,175,45,0*72
$GPRMC,092026.00,A,3110.7594826,N,12124.3621281,E,0.01,182.33,160223,0.0,E,R,V*54
$GPGGA,092026.00,3110.7594826,N,12124.3621281,E,5,24,1.0,20.375,M,10.843,M,1.0,0000*7B
$GNGSA,A,3,01,03,07,08,14,17,21,30,,,,,1.2,0.6,1.1,1*3A
$GNGSA,A,3,01,02,03,04,07,09,10,13,19,24,26,29,1.2,0.6,1.1,4*39
$GPGSV,3,1,09,01,65,033,48,03,35,134,43,07,25,198,42,08,18,075,39,0*6B
$GPGSV,3,2,09,14,58,323,45,17,37,297,44,19,11,276,00,21,38,041,44,0*6E
$GPGSV,3,3,09,30,39,241,45,,,,,,,,,,,,,0*53
$GBGSV,5,1,20,01,46,141,45,02,35,235,41,03,51,200,45,04,35,122,42,0*73
$GBGSV,5,2,20,06,13,204,00,07,71,345,46,09,20,219,38,10,60,323,45,0*7F
$GBGSV,5,3,20,13,27,194,41,16,12,202,00,19,16,115,00,20,10,068,00,0*7E
$GBGSV,5,4,20,24,24,314,24,26,60,267,49,29,28,051,45,35,64,344,49,0*76
$GBGSV,5,5,20,38,49,180,46,40,64,018,47,44,32,269,46,45,39,175,45,0*73
$GPRMC,092027.00,A,3110.7595657,N,12124.3620863,E,0.03,182.33,160223,0.0,E,R,V*59
$GPGGA,092027.00,3110.7595657,N,12124.3620863,E,5,24,1.0,19.979,M,10.843,M,1.0,0000*78
$GNGSA,A,3,01,03,07,08,14,17,21,30,,,,,1.2,0.6,1.1,1*3A
$GNGSA,A,3,01,02,03,04,07,09,10,13,19,24,26,29,1.2,0.6,1.1,4*39
$GPGSV,3,1,09,01,65,033,48,03,35,134,43,07,25,198,42,08,18,075,39,0*6B
$GPGSV,3,2,09,14,58,323,45,17,37,297,45,19,11,276,00,21,38,041,44,0*6F
$GPGSV,3,3,09,30,39,240,45,,,,,,,,,,,,,0*52
$GBGSV,5,1,20,01,46,141,44,02,35,235,41,03,51,200,45,04,35,122,42,0*72
$GBGSV,5,2,20,06,13,204,00,07,71,345,46,09,20,219,38,10,60,323,45,0*7F
$GBGSV,5,3,20,13,27,194,41,16,12,202,00,19,16,115,00,20,10,068,00,0*7E
$GBGSV,5,4,20,24,24,314,24,26,60,267,49,29,28,051,45,35,64,344,49,0*76
$GBGSV,5,5,20,38,49,180,46,40,64,018,47,44,32,269,46,45,39,175,45,0*73
$GPRMC,092028.00,A,3110.7595593,N,12124.3620958,E,0.04,182.33,160223,0.0,E,R,V*53
$GPGGA,092028.00,3110.7595593,N,12124.3620958,E,5,24,1.0,20.024,M,10.843,M,1.0,0000*7E
$GNGSA,A,3,01,03,07,08,14,17,21,30,,,,,1.2,0.6,1.1,1*3A
$GNGSA,A,3,01,02,03,04,07,09,10,13,19,24,26,29,1.2,0.6,1.1,4*39
$GPGSV,3,1,09,01,65,033,48,03,35,134,43,07,25,198,42,08,18,075,39,0*6B
$GPGSV,3,2,09,14,58,323,45,17,37,297,45,19,11,276,00,21,38,041,44,0*6F
$GPGSV,3,3,09,30,39,240,45,,,,,,,,,,,,,0*52
$GBGSV,5,1,20,01,46,141,45,02,35,235,41,03,51,200,45,04,35,122,42,0*73
$GBGSV,5,2,20,06,13,204,00,07,71,345,45,09,20,219,38,10,60,323,45,0*7C
$GBGSV,5,3,20,13,27,194,41,16,12,202,00,19,16,115,00,20,10,068,00,0*7E
$GBGSV,5,4,20,24,24,314,24,26,60,267,49,29,28,051,45,35,64,344,49,0*76
$GBGSV,5,5,20,38,49,180,46,40,64,018,47,44,32,269,46,45,39,175,45,0*73
$GPRMC,092029.00,A,3110.7595402,N,12124.3621095,E,0.01,182.33,160223,0.0,E,R,V*57
$GPGGA,092029.00,3110.7595402,N,12124.3621095,E,5,24,1.0,20.195,M,10.843,M,1.0,0000*74
$GNGSA,A,3,01,03,07,08,14,17,21,30,,,,,1.2,0.6,1.1,1*3A
$GNGSA,A,3,01,02,03,04,07,09,10,13,19,24,26,29,1.2,0.6,1.1,4*39
$GPGSV,3,1,09,01,65,033,48,03,35,134,43,07,25,198,42,08,18,075,39,0*6B
$GPGSV,3,2,09,14,58,323,45,17,37,297,45,19,11,276,00,21,38,041,44,0*6F
$GPGSV,3,3,09,30,39,240,45,,,,,,,,,,,,,0*52
$GBGSV,5,1,20,01,46,141,45,02,35,235,41,03,51,200,45,04,35,122,42,0*73
$GBGSV,5,2,20,06,13,204,00,07,71,345,45,09,20,219,38,10,60,323,45,0*7C
$GBGSV,5,3,20,13,27,194,41,16,12,202,00,19,16,115,00,20,10,068,00,0*7E
$GBGSV,5,4,20,24,24,314,24,26,60,267,49,29,28,051,45,35,64,344,49,0*76
$GBGSV,5,5,20,38,49,180,46,40,64,018,47,44,32,269,46,45,39,175,46,0*70
$GPRMC,092030.00,A,3110.7595242,N,12124.3621162,E,0.00,182.33,160223,0.0,E,R,V*55
$GPGGA,092030.00,3110.7595242,N,12124.3621162,E,5,24,1.0,20.320,M,10.843,M,1.0,0000*7B
$GNGSA,A,3,01,03,07,08,14,17,21,30,,,,,1.2,0.6,1.1,1*3A
$GNGSA,A,3,01,02,03,04,07,09,10,13,19,24,26,29,1.2,0.6,1.1,4*39
$GPGSV,3,1,09,01,65,033,48,03,35,134,43,07,25,198,42,08,18,075,39,0*6B
$GPGSV,3,2,09,14,58,323,45,17,37,297,45,19,11,276,00,21,38,041,44,0*6F
$GPGSV,3,3,09,30,39,240,45,,,,,,,,,,,,,0*52
$GBGSV,5,1,20,01,46,141,45,02,35,235,41,03,51,200,45,04,35,122,42,0*73
$GBGSV,5,2,20,06,13,204,00,07,71,345,45,09,20,219,38,10,60,323,45,0*7C
$GBGSV,5,3,20,13,27,194,41,16,12,202,00,19,16,115,00,20,10,068,00,0*7E
$GBGSV,5,4,20,24,24,314,25,26,60,267,49,29,28,051,45,35,64,344,49,0*77
$GBGSV,5,5,20,38,49,180,46,40,64,018,47,44,32,269,46,45,39,175,46,0*70
$GPRMC,092031.00,A,3110.7595010,N,12124.3621339,E,0.01,182.33,160223,0.0,E,R,V*5C
$GPGGA,092031.00,3110.7595010,N,12124.3621339,E,5,24,1.0,20.500,M,10.843,M,1.0,0000*77
$GNGSA,A,3,01,03,07,08,14,17,21,30,,,,,1.2,0.6,1.1,1*3A
$GNGSA,A,3,01,02,03,04,07,09,10,13,19,24,26,29,1.2,0.6,1.1,4*39
$GPGSV,3,1,09,01,65,033,48,03,35,134,43,07,25,198,42,08,18,075,39,0*6B
$GPGSV,3,2,09,14,58,323,45,17,37,297,45,19,11,276,00,21,38,041,44,0*6F
$GPGSV,3,3,09,30,39,240,45,,,,,,,,,,,,,0*52
$GBGSV,5,1,20,01,46,141,45,02,35,235,40,03,51,200,46,04,35,122,42,0*71
$GBGSV,5,2,20,06,13,204,00,07,71,345,45,09,20,219,38,10,60,323,45,0*7C
$GBGSV,5,3,20,13,27,194,41,16,12,202,00,19,16,115,00,20,10,068,00,0*7E
$GBGSV,5,4,20,24,24,314,25,26,60,267,49,29,28,051,45,35,64,344,49,0*77
$GBGSV,5,5,20,38,49,180,46,40,64,018,47,44,32,269,46,45,39,175,46,0*70
$GPRMC,092032.00,A,3110.7594701,N,12124.3621517,E,0.02,182.33,160223,0.0,E,R,V*50
$GPGGA,092032.00,3110.7594701,N,12124.3621517,E,5,24,1.0,20.727,M,10.843,M,1.0,0000*7F
$GNGSA,A,3,01,03,07,08,14,17,21,30,,,,,1.2,0.6,1.1,1*3A
$GNGSA,A,3,01,02,03,04,07,09,10,13,19,24,26,29,1.2,0.6,1.1,4*39
$GPGSV,3,1,09,01,65,033,48,03,35,134,43,07,25,198,42,08,18,075,39,0*6B
$GPGSV,3,2,09,14,58,323,45,17,37,297,45,19,11,276,00,21,38,041,44,0*6F
$GPGSV,3,3,09,30,39,240,45,,,,,,,,,,,,,0*52
$GBGSV,5,1,20,01,46,141,44,02,35,235,41,03,51,200,45,04,35,122,42,0*72
$GBGSV,5,2,20,06,13,204,00,07,71,345,45,09,20,219,38,10,60,323,45,0*7C
$GBGSV,5,3,20,13,27,194,41,16,12,202,00,19,16,115,00,20,10,068,00,0*7E
$GBGSV,5,4,20,24,24,314,25,26,60,267,49,29,28,051,45,35,64,344,49,0*77
$GBGSV,5,5,20,38,49,180,46,40,64,018,47,44,32,269,46,45,39,175,45,0*73
$GPRMC,092033.00,A,3110.7594484,N,12124.3621567,E,0.06,182.33,160223,0.0,E,R,V*5C
$GPGGA,092033.00,3110.7594484,N,12124.3621567,E,5,24,1.0,20.904,M,10.843,M,1.0,0000*78
$GNGSA,A,3,01,03,07,08,14,17,21,30,,,,,1.2,0.6,1.1,1*3A
$GNGSA,A,3,01,02,03,04,07,09,10,13,19,24,26,29,1.2,0.6,1.1,4*39
$GPGSV,3,1,09,01,65,033,48,03,35,134,43,07,25,198,42,08,18,075,39,0*6B
$GPGSV,3,2,09,14,58,323,45,17,37,297,45,19,11,276,00,21,38,041,44,0*6F
$GPGSV,3,3,09,30,39,240,45,,,,,,,,,,,,,0*52
$GBGSV,5,1,20,01,46,141,45,02,35,235,41,03,51,200,45,04,35,122,42,0*73
$GBGSV,5,2,20,06,13,204,00,07,71,345,46,09,20,219,38,10,60,323,45,0*7F
$GBGSV,5,3,20,13,27,194,41,16,12,202,00,19,16,115,00,20,10,068,00,0*7E
$GBGSV,5,4,20,24,24,314,25,26,60,267,49,29,28,051,45,35,64,344,49,0*77
$GBGSV,5,5,20,38,49,180,46,40,64,018,47,44,32,269,46,45,39,175,46,0*70
$GPRMC,092034.00,A,3110.7594269,N,12124.3621597,E,0.03,182.33,160223,0.0,E,R,V*54
$GPGGA,092034.00,3110.7594269,N,12124.3621597,E,5,24,1.0,21.067,M,10.843,M,1.0,0000*78
$GNGSA,A,3,01,03,07,08,14,17,21,30,,,,,1.2,0.6,1.1,1*3A
$GNGSA,A,3,01,02,03,04,07,09,10,13,19,24,26,29,1.2,0.6,1.1,4*39
$GPGSV,3,1,09,01,65,033,48,03,35,134,43,07,25,198,42,08,18,075,39,0*6B
$GPGSV,3,2,09,14,58,323,45,17,37,297,45,19,11,276,00,21,38,041,44,0*6F
$GPGSV,3,3,09,30,39,240,45,,,,,,,,,,,,,0*52
$GBGSV,5,1,20,01,46,141,45,02,35,235,41,03,51,200,45,04,35,122,42,0*73
$GBGSV,5,2,20,06,13,204,00,07,71,345,46,09,20,219,38,10,60,323,45,0*7F
$GBGSV,5,3,20,13,27,194,41,16,12,202,00,19,16,115,00,20,10,068,00,0*7E
$GBGSV,5,4,20,24,24,314,25,26,60,267,49,29,28,051,45,35,64,344,49,0*77
$GBGSV,5,5,20,38,49,180,46,40,64,018,47,44,32,269,46,45,39,175,46,0*70
$GPRMC,092035.00,A,3110.7594116,N,12124.3621650,E,0.01,182.33,160223,0.0,E,R,V*54
$GPGGA,092035.00,3110.7594116,N,12124.3621650,E,5,24,1.0,21.229,M,10.843,M,1.0,0000*72
$GNGSA,A,3,01,03,07,08,14,17,21,30,,,,,1.2,0.6,1.1,1*3A
$GNGSA,A,3,01,02,03,04,07,09,10,13,19,24,26,29,1.2,0.6,1.1,4*39
$GPGSV,3,1,09,01,65,033,48,03,35,134,43,07,25,198,41,08,18,075,39,0*68
$GPGSV,3,2,09,14,58,323,45,17,37,297,45,19,11,276,00,21,38,041,44,0*6F
$GPGSV,3,3,09,30,39,240,45,,,,,,,,,,,,,0*52
$GBGSV,5,1,20,01,46,141,44,02,35,235,41,03,51,200,45,04,35,122,42,0*72
$GBGSV,5,2,20,06,13,204,00,07,71,345,46,09,20,219,38,10,60,323,45,0*7F
$GBGSV,5,3,20,13,27,194,41,16,12,202,00,19,16,115,00,20,10,068,00,0*7E
$GBGSV,5,4,20,24,24,314,25,26,60,267,49,29,28,051,45,35,64,344,49,0*77
$GBGSV,5,5,20,38,49,180,46,40,64,018,47,44,32,269,46,45,39,175,45,0*73
$GPRMC,092036.00,A,3110.7593914,N,12124.3621707,E,0.04,182.33,160223,0.0,E,R,V*5C
$GPGGA,092036.00,3110.7593914,N,12124.3621707,E,5,24,1.0,21.391,M,10.843,M,1.0,0000*7D
$GNGSA,A,3,01,03,07,08,14,17,21,30,,,,,1.2,0.6,1.1,1*3A
$GNGSA,A,3,01,02,03,04,07,09,10,13,19,24,26,29,1.2,0.6,1.1,4*39
$GPGSV,3,1,09,01,65,033,48,03,35,134,43,07,25,198,41,08,18,075,39,0*68
$GPGSV,3,2,09,14,58,323,45,17,37,297,45,19,11,276,00,21,38,041,44,0*6F
$GPGSV,3,3,09,30,39,240,45,,,,,,,,,,,,,0*52
$GBGSV,5,1,20,01,46,141,45,02,35,235,41,03,51,200,45,04,35,122,41,0*70
$GBGSV,5,2,20,06,13,204,00,07,71,345,46,09,20,219,38,10,60,323,45,0*7F
$GBGSV,5,3,20,13,27,194,41,16,12,202,00,19,16,115,00,20,10,068,00,0*7E
$GBGSV,5,4,20,24,24,314,25,26,60,267,49,29,28,051,45,35,64,344,49,0*77
$GBGSV,5,5,20,38,49,180,46,40,64,018,47,44,32,269,46,45,39,175,45,0*73
$GPRMC,092037.00,A,3110.7593797,N,12124.3621767,E,0.04,182.33,160223,0.0,E,R,V*5E
$GPGGA,092037.00,3110.7593797,N,12124.3621767,E,5,24,1.0,21.497,M,10.843,M,1.0,0000*7E
$GNGSA,A,3,01,03,07,08,14,17,21,30,,,,,1.2,0.6,1.1,1*3A
$GNGSA,A,3,01,02,03,04,07,09,10,13,19,24,26,29,1.2,0.6,1.1,4*39
$GPGSV,3,1,09,01,65,033,48,03,35,134,43,07,25,198,41,08,18,075,39,0*68
$GPGSV,3,2,09,14,58,323,45,17,37,297,45,19,11,276,00,21,38,041,44,0*6F
$GPGSV,3,3,09,30,39,240,45,,,,,,,,,,,,,0*52
$GBGSV,5,1,20,01,46,141,45,02,35,235,41,03,51,200,45,04,35,122,41,0*70
$GBGSV,5,2,20,06,13,204,00,07,71,345,46,09,20,219,38,10,60,323,45,0*7F
$GBGSV,5,3,20,13,27,194,41,16,12,202,00,19,16,115,00,20,10,068,00,0*7E
$GBGSV,5,4,20,24,24,314,25,26,60,267,49,29,28,051,45,35,64,344,49,0*77
$GBGSV,5,5,20,38,49,180,46,40,64,018,47,44,32,269,46,45,39,175,45,0*73
$GPRMC,092038.00,A,3110.7593692,N,12124.3621842,E,0.05,182.33,160223,0.0,E,R,V*5C
$GPGGA,092038.00,3110.7593692,N,12124.3621842,E,5,24,1.0,21.612,M,10.843,M,1.0,0000*72
$GNGSA,A,3,01,03,07,08,14,17,21,30,,,,,1.2,0.6,1.1,1*3A
$GNGSA,A,3,01,02,03,04,07,09,10,13,19,24,26,29,1.2,0.6,1.1,4*39
$GPGSV,3,1,09,01,65,033,48,03,35,134,43,07,25,198,41,08,18,075,39,0*68
$GPGSV,3,2,09,14,58,323,45,17,37,297,44,19,11,276,00,21,38,041,44,0*6E
$GPGSV,3,3,09,30,39,240,45,,,,,,,,,,,,,0*52
$GBGSV,5,1,20,01,46,141,45,02,35,235,41,03,51,200,45,04,35,122,41,0*70
$GBGSV,5,2,20,06,13,204,00,07,71,345,46,09,20,219,38,10,60,323,45,0*7F
$GBGSV,5,3,20,13,27,194,41,16,12,202,00,19,16,115,00,20,10,068,00,0*7E
$GBGSV,5,4,20,24,24,314,25,26,60,267,49,29,28,051,45,35,64,344,49,0*77
$GBGSV,5,5,20,38,49,180,46,40,64,018,47,44,32,269,46,45,39,175,45,0*73
$GPRMC,092039.00,A,3110.7593545,N,12124.3621889,E,0.06,182.33,160223,0.0,E,R,V*50
$GPGGA,092039.00,3110.7593545,N,12124.3621889,E,5,24,1.0,21.736,M,10.843,M,1.0,0000*7A
$GNGSA,A,3,01,03,07,08,14,17,21,30,,,,,1.2,0.6,1.1,1*3A
$GNGSA,A,3,01,02,03,04,07,09,10,13,19,24,26,29,1.2,0.6,1.1,4*39
$GPGSV,3,1,09,01,65,033,48,03,35,134,43,07,25,198,41,08,18,075,39,0*68
$GPGSV,3,2,09,14,58,323,45,17,37,297,44,19,11,276,00,21,38,041,44,0*6E
$GPGSV,3,3,09,30,39,240,45,,,,,,,,,,,,,0*52
$GBGSV,5,1,20,01,46,141,45,02,35,235,41,03,51,200,45,04,35,122,41,0*70
$GBGSV,5,2,20,06,13,204,00,07,71,345,46,09,20,219,38,10,60,323,45,0*7F
$GBGSV,5,3,20,13,27,194,41,16,12,202,00,19,16,115,00,20,10,068,00,0*7E
$GBGSV,5,4,20,24,24,314,26,26,60,267,49,29,28,051,45,35,64,344,49,0*74
$GBGSV,5,5,20,38,49,180,46,40,64,018,47,44,32,269,46,45,39,175,45,0*73
$GPRMC,092040.00,A,3110.7593421,N,12124.3621913,E,0.02,182.33,160223,0.0,E,R,V*5B
$GPGGA,092040.00,3110.7593421,N,12124.3621913,E,5,24,1.0,21.841,M,10.843,M,1.0,0000*7A
$GNGSA,A,3,01,03,07,08,14,17,21,30,,,,,1.2,0.6,1.1,1*3A
$GNGSA,A,3,01,02,03,04,07,09,10,13,19,24,26,29,1.2,0.6,1.1,4*39
$GPGSV,3,1,09,01,65,033,48,03,36,134,43,07,25,198,41,08,18,075,39,0*6B
$GPGSV,3,2,09,14,58,323,45,17,37,297,45,19,11,276,00,21,38,041,44,0*6F
$GPGSV,3,3,09,30,39,240,45,,,,,,,,,,,,,0*52
$GBGSV,5,1,20,01,46,141,45,02,35,235,41,03,51,200,45,04,35,122,41,0*70
$GBGSV,5,2,20,06,13,204,00,07,71,345,46,09,20,219,38,10,60,323,45,0*7F
$GBGSV,5,3,20,13,27,194,41,16,12,202,00,19,16,115,00,20,10,068,00,0*7E
$GBGSV,5,4,20,24,24,314,26,26,60,267,49,29,28,051,45,35,64,344,49,0*74
$GBGSV,5,5,20,38,49,180,46,40,64,018,47,44,32,269,46,45,39,175,46,0*70
$GPRMC,092041.00,A,3110.7593243,N,12124.3622026,E,0.04,182.33,160223,0.0,E,R,V*52
$GPGGA,092041.00,3110.7593243,N,12124.3622026,E,5,24,1.0,21.999,M,10.843,M,1.0,0000*71
$GNGSA,A,3,01,03,07,08,14,17,21,30,,,,,1.2,0.6,1.1,1*3A
$GNGSA,A,3,01,02,03,04,07,09,10,13,19,24,26,29,1.2,0.6,1.1,4*39
$GPGSV,3,1,09,01,65,033,48,03,36,134,43,07,25,198,41,08,18,075,39,0*6B
$GPGSV,3,2,09,14,58,323,45,17,37,297,45,19,11,276,00,21,38,041,43,0*68
$GPGSV,3,3,09,30,39,240,45,,,,,,,,,,,,,0*52
$GBGSV,5,1,20,01,46,141,45,02,35,235,41,03,51,200,45,04,35,122,41,0*70
$GBGSV,5,2,20,06,13,204,00,07,71,345,46,09,20,219,38,10,60,323,45,0*7F
$GBGSV,5,3,20,13,27,194,41,16,12,202,00,19,16,115,00,20,10,068,00,0*7E
$GBGSV,5,4,20,24,24,314,26,26,60,267,49,29,28,051,45,35,64,344,49,0*74
$GBGSV,5,5,20,38,49,180,46,40,64,018,47,44,32,269,46,45,39,175,46,0*70
$GPRMC,092042.00,A,3110.7593022,N,12124.3622126,E,0.04,182.33,160223,0.0,E,R,V*55
$GPGGA,092042.00,3110.7593022,N,12124.3622126,E,5,24,1.0,22.150,M,10.843,M,1.0,0000*78
$GNGSA,A,3,01,03,07,08,14,17,21,30,,,,,1.2,0.6,1.1,1*3A
$GNGSA,A,3,01,02,03,04,07,09,10,13,19,24,26,29,1.2,0.6,1.1,4*39
$GPGSV,3,1,09,01,65,033,48,03,36,134,43,07,25,198,41,08,18,075,39,0*6B
$GPGSV,3,2,09,14,58,323,45,17,37,297,45,19,11,276,00,21,38,041,43,0*68
$GPGSV,3,3,09,30,39,240,45,,,,,,,,,,,,,0*52
$GBGSV,5,1,20,01,46,141,45,02,35,235,41,03,51,200,45,04,35,122,41,0*70
$GBGSV,5,2,20,06,13,204,00,07,71,345,46,09,20,219,38,10,60,323,45,0*7F
$GBGSV,5,3,20,13,27,194,41,16,12,202,00,19,16,115,00,20,10,068,00,0*7E
$GBGSV,5,4,20,24,24,314,27,26,60,266,49,29,28,051,45,35,64,344,49,0*74
$GBGSV,5,5,20,38,49,180,46,40,64,018,47,44,32,269,46,45,39,175,46,0*70
$GPRMC,092043.00,A,3110.7592851,N,12124.3622220,E,0.03,182.33,160223,0.0,E,R,V*5B
$GPGGA,092043.00,3110.7592851,N,12124.3622220,E,5,24,1.0,22.271,M,10.843,M,1.0,0000*71
$GNGSA,A,3,01,03,07,08,14,17,21,30,,,,,1.2,0.6,1.1,1*3A
$GNGSA,A,3,01,02,03,04,07,09,10,13,19,24,26,29,1.2,0.6,1.1,4*39
$GPGSV,3,1,09,01,65,033,48,03,36,134,42,07,25,198,41,08,18,075,39,0*6A
$GPGSV,3,2,09,14,58,323,45,17,37,297,45,19,11,276,00,21,38,041,43,0*68
$GPGSV,3,3,09,30,39,240,45,,,,,,,,,,,,,0*52
$GBGSV,5,1,20,01,46,141,45,02,35,235,41,03,51,200,45,04,35,122,41,0*70
$GBGSV,5,2,20,06,13,204,00,07,71,345,46,09,20,219,38,10,60,323,45,0*7F
$GBGSV,5,3,20,13,27,194,41,16,12,202,00,19,16,115,00,20,10,068,00,0*7E
$GBGSV,5,4,20,24,24,314,27,26,60,266,49,29,28,051,45,35,64,344,49,0*74
$GBGSV,5,5,20,38,49,180,46,40,64,018,47,44,32,269,46,45,39,175,46,0*70
$GPRMC,092044.00,A,3110.7592690,N,12124.3622328,E,0.03,182.33,160223,0.0,E,R,V*56
$GPGGA,092044.00,3110.7592690,N,12124.3622328,E,5,24,1.0,22.396,M,10.843,M,1.0,0000*74
$GNGSA,A,3,01,03,07,08,14,17,21,30,,,,,1.2,0.6,1.1,1*3A
$GNGSA,A,3,01,02,03,04,07,09,10,13,19,24,26,29,1.2,0.6,1.1,4*39
$GPGSV,3,1,09,01,65,033,48,03,36,134,42,07,25,198,41,08,18,075,39,0*6A
$GPGSV,3,2,09,14,58,323,45,17,37,297,44,19,11,276,00,21,38,041,43,0*69
$GPGSV,3,3,09,30,39,240,45,,,,,,,,,,,,,0*52
$GBGSV,5,1,20,01,46,141,45,02,35,235,41,03,51,200,45,04,35,122,41,0*70
$GBGSV,5,2,20,06,13,204,00,07,71,345,45,09,20,219,38,10,60,323,45,0*7C
$GBGSV,5,3,20,13,27,194,41,16,12,202,00,19,16,115,00,20,10,068,00,0*7E
$GBGSV,5,4,20,24,24,314,27,26,60,266,49,29,28,051,45,35,64,344,49,0*74
$GBGSV,5,5,20,38,49,180,46,40,64,018,47,44,32,269,46,45,39,175,46,0*70
$GPRMC,092045.00,A,3110.7592557,N,12124.3622362,E,0.02,182.33,160223,0.0,E,R,V*50
$GPGGA,092045.00,3110.7592557,N,12124.3622362,E,5,24,1.0,22.483,M,10.843,M,1.0,0000*70
$GNGSA,A,3,01,03,07,08,14,17,21,30,,,,,1.2,0.6,1.1,1*3A
$GNGSA,A,3,01,02,03,04,07,09,10,13,19,24,26,29,1.2,0.6,1.1,4*39
$GPGSV,3,1,09,01,65,033,48,03,36,134,43,07,25,198,41,08,18,075,39,0*6B
$GPGSV,3,2,09,14,58,323,45,17,37,297,44,19,11,276,00,21,38,041,43,0*69
$GPGSV,3,3,09,30,39,240,45,,,,,,,,,,,,,0*52
$GBGSV,5,1,20,01,46,141,44,02,35,235,41,03,51,200,45,04,35,122,41,0*71
$GBGSV,5,2,20,06,13,204,00,07,71,345,45,09,20,219,38,10,60,323,45,0*7C
$GBGSV,5,3,20,13,27,194,41,16,12,202,00,19,16,115,00,20,10,068,00,0*7E
$GBGSV,5,4,20,24,24,314,27,26,60,266,49,29,28,051,45,35,64,344,49,0*74
$GBGSV,5,5,20,38,49,180,46,40,64,018,47,44,32,269,46,45,39,175,46,0*70
$GPRMC,092046.00,A,3110.7592472,N,12124.3622417,E,0.04,182.33,160223,0.0,E,R,V*56
$GPGGA,092046.00,3110.7592472,N,12124.3622417,E,5,24,1.0,22.544,M,10.843,M,1.0,0000*7A
$GNGSA,A,3,01,03,07,08,14,17,21,30,,,,,1.2,0.6,1.1,1*3A
$GNGSA,A,3,01,02,03,04,07,09,10,13,19,24,26,29,1.2,0.6,1.1,4*39
$GPGSV,3,1,09,01,65,033,48,03,36,134,43,07,25,198,42,08,18,075,39,0*68
$GPGSV,3,2,09,14,58,323,45,17,37,297,44,19,11,276,00,21,38,041,43,0*69
$GPGSV,3,3,09,30,39,240,45,,,,,,,,,,,,,0*52
$GBGSV,5,1,20,01,46,141,44,02,35,235,41,03,51,200,45,04,35,122,41,0*71
$GBGSV,5,2,20,06,13,204,00,07,71,345,45,09,20,219,38,10,60,323,45,0*7C
$GBGSV,5,3,20,13,27,194,41,16,12,202,00,19,16,115,00,20,10,068,00,0*7E
$GBGSV,5,4,20,24,24,314,27,26,60,266,49,29,28,051,45,35,64,344,49,0*74
$GBGSV,5,5,20,38,49,180,46,40,64,018,47,44,32,269,46,45,39,175,46,0*70
$GPRMC,092047.00,A,3110.7592355,N,12124.3622461,E,0.03,182.33,160223,0.0,E,R,V*53
$GPGGA,092047.00,3110.7592355,N,12124.3622461,E,5,24,1.0,22.638,M,10.843,M,1.0,0000*70
$GNGSA,A,3,01,03,07,08,14,17,21,30,,,,,1.2,0.6,1.1,1*3A
$GNGSA,A,3,01,02,03,04,07,09,10,13,19,24,26,29,1.2,0.6,1.1,4*39
$GPGSV,3,1,09,01,65,033,47,03,36,134,43,07,25,198,42,08,18,075,39,0*67
$GPGSV,3,2,09,14,58,323,45,17,37,297,44,19,11,276,00,21,38,041,44,0*6E
$GPGSV,3,3,09,30,39,240,45,,,,,,,,,,,,,0*52
$GBGSV,5,1,20,01,46,141,44,02,35,235,41,03,51,200,45,04,35,122,41,0*71
$GBGSV,5,2,20,06,13,204,00,07,71,345,45,09,20,219,38,10,60,323,45,0*7C
$GBGSV,5,3,20,13,27,194,41,16,12,202,00,19,16,115,00,20,10,068,00,0*7E
$GBGSV,5,4,20,24,24,314,27,26,60,266,49,29,28,051,45,35,64,344,49,0*74
$GBGSV,5,5,20,38,49,180,46,40,64,018,47,44,32,269,46,45,39,175,46,0*70
$GPRMC,092048.00,A,3110.7592251,N,12124.3622461,E,0.03,182.33,160223,0.0,E,R,V*59
$GPGGA,092048.00,3110.7592251,N,12124.3622461,E,5,24,1.0,22.716,M,10.843,M,1.0,0000*77
$GNGSA,A,3,01,03,07,08,14,17,21,30,,,,,1.2,0.6,1.1,1*3A
$GNGSA,A,3,01,02,03,04,07,09,10,13,19,24,26,29,1.2,0.6,1.1,4*39
$GPGSV,3,1,09,01,65,033,47,03,36,134,43,07,25,198,42,08,18,075,39,0*67
$GPGSV,3,2,09,14,58,323,45,17,37,297,44,19,11,276,00,21,38,041,44,0*6E
$GPGSV,3,3,09,30,39,240,45,,,,,,,,,,,,,0*52
$GBGSV,5,1,20,01,46,141,44,02,35,235,41,03,51,200,45,04,35,122,41,0*71
$GBGSV,5,2,20,06,13,204,00,07,71,345,46,09,20,219,38,10,60,323,45,0*7F
$GBGSV,5,3,20,13,27,194,41,16,12,202,00,19,16,115,00,20,10,068,00,0*7E
$GBGSV,5,4,20,24,24,314,27,26,60,266,49,29,28,051,45,35,64,344,49,0*74
$GBGSV,5,5,20,38,49,180,46,40,64,018,47,44,32,269,46,45,39,175,46,0*70
$GPRMC,092049.00,A,3110.7592121,N,12124.3622474,E,0.01,182.33,160223,0.0,E,R,V*5A
$GPGGA,092049.00,3110.7592121,N,12124.3622474,E,5,24,1.0,22.801,M,10.843,M,1.0,0000*7F
$GNGSA,A,3,01,03,07,08,14,17,21,30,,,,,1.2,0.6,1.1,1*3A
$GNGSA,A,3,01,02,03,04,07,09,10,13,19,24,26,29,1.2,0.6,1.1,4*39
$GPGSV,3,1,09,01,65,033,47,03,36,134,43,07,25,198,42,08,18,075,39,0*67
$GPGSV,3,2,09,14,58,323,45,17,37,297,44,19,11,276,00,21,38,041,44,0*6E
$GPGSV,3,3,09,30,39,240,45,,,,,,,,,,,,,0*52
$GBGSV,5,1,20,01,46,141,44,02,35,235,41,03,51,200,45,04,35,122,41,0*71
$GBGSV,5,2,20,06,13,204,00,07,71,345,46,09,20,219,38,10,60,323,45,0*7F
$GBGSV,5,3,20,13,27,194,41,16,12,202,00,19,16,115,00,20,10,068,00,0*7E
$GBGSV,5,4,20,24,24,314,27,26,60,266,49,29,28,051,45,35,64,344,49,0*74
$GBGSV,5,5,20,38,49,180,46,40,64,018,47,44,32,269,46,45,39,175,46,0*70
$GPRMC,092050.00,A,3110.7591983,N,12124.3622506,E,0.01,182.33,160223,0.0,E,R,V*55
$GPGGA,092050.00,3110.7591983,N,12124.3622506,E,5,24,1.0,22.912,M,10.843,M,1.0,0000*73
$GNGSA,A,3,01,03,07,08,14,17,21,30,,,,,1.2,0.6,1.1,1*3A
$GNGSA,A,3,01,02,03,04,07,09,10,13,19,24,26,29,1.2,0.6,1.1,4*39
$GPGSV,3,1,09,01,65,033,47,03,36,134,43,07,25,198,42,08,18,075,39,0*67
$GPGSV,3,2,09,14,58,323,45,17,37,297,44,19,11,276,00,21,38,041,44,0*6E
$GPGSV,3,3,09,30,39,240,45,,,,,,,,,,,,,0*52
$GBGSV,5,1,20,01,46,141,44,02,35,235,41,03,51,200,46,04,35,122,41,0*72
$GBGSV,5,2,20,06,13,204,00,07,71,345,46,09,20,219,38,10,60,323,45,0*7F
$GBGSV,5,3,20,13,27,194,41,16,12,202,00,19,16,115,00,20,10,068,00,0*7E
$GBGSV,5,4,20,24,24,314,28,26,60,266,49,29,28,051,45,35,64,344,49,0*7B
$GBGSV,5,5,20,38,49,180,46,40,64,018,47,44,32,269,45,45,39,175,46,0*73
$GPRMC,092051.00,A,3110.7591849,N,12124.3622515,E,0.00,182.33,160223,0.0,E,R,V*50
$GPGGA,092051.00,3110.7591849,N,12124.3622515,E,5,24,1.0,23.008,M,10.843,M,1.0,0000*74
$GNGSA,A,3,01,03,07,08,14,17,21,30,,,,,1.2,0.6,1.1,1*3A
$GNGSA,A,3,01,02,03,04,07,09,10,13,19,24,26,29,1.2,0.6,1.1,4*39
$GPGSV,3,1,09,01,65,033,48,03,36,134,43,07,25,198,42,08,18,075,39,0*68
$GPGSV,3,2,09,14,58,323,45,17,37,297,44,19,11,276,00,21,38,041,44,0*6E
$GPGSV,3,3,09,30,39,240,45,,,,,,,,,,,,,0*52
$GBGSV,5,1,20,01,46,141,45,02,35,235,40,03,51,200,46,04,35,122,41,0*72
$GBGSV,5,2,20,06,13,204,00,07,71,345,46,09,20,219,38,10,60,323,45,0*7F
$GBGSV,5,3,20,13,27,194,41,16,12,202,00,19,16,115,00,20,10,068,00,0*7E
$GBGSV,5,4,20,24,24,314,27,26,60,266,49,29,28,051,45,35,64,344,49,0*74
$GBGSV,5,5,20,38,49,180,46,40,64,018,47,44,32,269,45,45,39,175,46,0*73
$GPRMC,092052.00,A,3110.7591702,N,12124.3622530,E,0.01,182.33,160223,0.0,E,R,V*55
$GPGGA,092052.00,3110.7591702,N,12124.3622530,E,5,24,1.0,23.102,M,10.843,M,1.0,0000*7B
$GNGSA,A,3,01,03,07,08,14,17,21,30,,,,,1.2,0.6,1.1,1*3A
$GNGSA,A,3,01,02,03,04,07,09,10,13,19,24,26,29,1.2,0.6,1.1,4*39
$GPGSV,3,1,09,01,65,033,48,03,36,134,43,07,25,198,42,08,18,076,39,0*6B
$GPGSV,3,2,09,14,58,323,45,17,37,297,44,19,11,276,00,21,38,041,44,0*6E
$GPGSV,3,3,09,30,39,240,45,,,,,,,,,,,,,0*52
$GBGSV,5,1,20,01,46,141,45,02,35,235,40,03,51,200,45,04,35,122,41,0*71
$GBGSV,5,2,20,06,13,204,00,07,71,345,46,09,20,219,38,10,60,323,45,0*7F
$GBGSV,5,3,20,13,27,194,41,16,12,202,00,19,16,115,00,20,10,068,00,0*7E
$GBGSV,5,4,20,24,24,314,27,26,60,266,49,29,28,051,45,35,64,344,49,0*74
$GBGSV,5,5,20,38,49,180,46,40,64,018,47,44,32,269,45,45,39,175,46,0*73
$GPRMC,092053.00,A,3110.7591577,N,12124.3622558,E,0.03,182.33,160223,0.0,E,R,V*58
$GPGGA,092053.00,3110.7591577,N,12124.3622558,E,5,24,1.0,23.188,M,10.843,M,1.0,0000*76
$GNGSA,A,3,01,03,07,08,14,17,21,30,,,,,1.2,0.6,1.1,1*3A
$GNGSA,A,3,01,02,03,04,07,09,10,13,19,24,26,29,1.2,0.6,1.1,4*39
$GPGSV,3,1,09,01,65,033,48,03,36,134,43,07,25,198,41,08,18,076,39,0*68
$GPGSV,3,2,09,14,58,323,45,17,37,297,44,19,11,276,00,21,38,041,44,0*6E
$GPGSV,3,3,09,30,39,240,45,,,,,,,,,,,,,0*52
$GBGSV,5,1,20,01,46,141,45,02,35,235,40,03,51,200,45,04,35,122,42,0*72
$GBGSV,5,2,20,06,13,204,00,07,71,345,46,09,20,219,38,10,60,323,45,0*7F
$GBGSV,5,3,20,13,27,194,41,16,12,202,00,19,16,115,00,20,10,068,00,0*7E
$GBGSV,5,4,20,24,24,314,28,26,60,266,49,29,28,051,45,35,64,344,49,0*7B
$GBGSV,5,5,20,38,49,180,46,40,64,018,47,44,32,269,45,45,39,175,46,0*73
$GPRMC,092054.00,A,3110.7591481,N,12124.3622558,E,0.02,182.33,160223,0.0,E,R,V*56
$GPGGA,092054.00,3110.7591481,N,12124.3622558,E,5,24,1.0,23.272,M,10.843,M,1.0,0000*7F
$GNGSA,A,3,01,03,07,08,14,17,21,30,,,,,1.2,0.6,1.1,1*3A
$GNGSA,A,3,01,02,03,04,07,09,10,13,19,24,26,29,1.2,0.6,1.1,4*39
$GPGSV,3,1,09,01,65,033,48,03,36,134,43,07,25,198,41,08,18,076,39,0*68
$GPGSV,3,2,09,14,58,323,45,17,37,297,44,19,11,276,00,21,38,041,44,0*6E
$GPGSV,3,3,09,30,39,240,44,,,,,,,,,,,,,0*53
$GBGSV,5,1,20,01,46,141,45,02,35,235,40,03,51,200,45,04,35,122,42,0*72
$GBGSV,5,2,20,06,13,204,00,07,71,345,46,09,20,219,38,10,60,323,45,0*7F
$GBGSV,5,3,20,13,27,194,41,16,12,202,00,19,16,115,00,20,10,068,00,0*7E
$GBGSV,5,4,20,24,24,314,28,26,60,266,49,29,28,051,45,35,64,344,49,0*7B
$GBGSV,5,5,20,38,49,180,46,40,64,018,47,44,32,269,45,45,39,175,46,0*73
$GPRMC,092055.00,A,3110.7591361,N,12124.3622537,E,0.02,182.33,160223,0.0,E,R,V*57
$GPGGA,092055.00,3110.7591361,N,12124.3622537,E,5,24,1.0,23.349,M,10.843,M,1.0,0000*77
$GNGSA,A,3,01,03,07,08,14,17,21,30,,,,,1.2,0.6,1.1,1*3A
$GNGSA,A,3,01,02,03,04,07,09,10,13,19,24,26,29,1.2,0.6,1.1,4*39
$GPGSV,3,1,09,01,65,033,48,03,36,134,43,07,25,198,41,08,18,076,39,0*68
$GPGSV,3,2,09,14,58,323,45,17,37,297,44,19,11,276,00,21,38,041,44,0*6E
$GPGSV,3,3,09,30,39,240,44,,,,,,,,,,,,,0*53
$GBGSV,5,1,20,01,46,141,45,02,35,235,41,03,51,200,46,04,35,122,42,0*70
$GBGSV,5,2,20,06,13,204,00,07,71,345,46,09,20,219,38,10,60,323,45,0*7F
$GBGSV,5,3,20,13,27,194,41,16,12,202,00,19,16,115,00,20,10,068,00,0*7E
$GBGSV,5,4,20,24,24,314,28,26,60,266,49,29,28,051,45,35,64,344,49,0*7B
$GBGSV,5,5,20,38,49,180,46,40,64,018,47,44,32,269,45,45,38,175,46,0*72
$GPRMC,092056.00,A,3110.7591240,N,12124.3622543,E,0.02,182.33,160223,0.0,E,R,V*55
$GPGGA,092056.00,3110.7591240,N,12124.3622543,E,5,24,1.0,23.451,M,10.843,M,1.0,0000*7B
$GNGSA,A,3,01,03,07,08,14,17,21,30,,,,,1.2,0.6,1.1,1*3A
$GNGSA,A,3,01,02,03,04,07,09,10,13,19,24,26,29,1.2,0.6,1.1,4*39
$GPGSV,3,1,09,01,65,033,48,03,36,134,43,07,25,198,41,08,18,076,39,0*68
$GPGSV,3,2,09,14,58,323,45,17,37,297,44,19,11,276,00,21,38,041,44,0*6E
$GPGSV,3,3,09,30,39,240,44,,,,,,,,,,,,,0*53
$GBGSV,5,1,20,01,46,141,45,02,35,235,40,03,51,200,45,04,35,122,42,0*72
$GBGSV,5,2,20,06,13,204,00,07,71,345,46,09,20,219,38,10,60,323,45,0*7F
$GBGSV,5,3,20,13,27,194,41,16,12,202,00,19,16,115,00,20,10,068,00,0*7E
$GBGSV,5,4,20,24,24,314,28,26,60,266,49,29,28,051,45,35,64,344,49,0*7B
$GBGSV,5,5,20,38,49,180,46,40,64,018,47,44,32,269,45,45,38,175,46,0*72
$GPRMC,092057.00,A,3110.7591112,N,12124.3622585,E,0.01,182.33,160223,0.0,E,R,V*59
$GPGGA,092057.00,3110.7591112,N,12124.3622585,E,5,24,1.0,23.552,M,10.843,M,1.0,0000*76
$GNGSA,A,3,01,03,07,08,14,17,21,30,,,,,1.2,0.6,1.1,1*3A
$GNGSA,A,3,01,02,03,04,07,09,10,13,19,24,26,29,1.2,0.6,1.1,4*39
$GPGSV,3,1,09,01,65,033,47,03,36,134,43,07,25,198,41,08,18,076,39,0*67
$GPGSV,3,2,09,14,58,323,45,17,37,297,44,19,11,276,00,21,38,041,44,0*6E
$GPGSV,3,3,09,30,39,240,45,,,,,,,,,,,,,0*52
$GBGSV,5,1,20,01,46,141,44,02,35,235,40,03,51,200,45,04,35,122,42,0*73
$GBGSV,5,2,20,06,13,204,00,07,71,345,46,09,20,219,38,10,60,323,45,0*7F
$GBGSV,5,3,20,13,27,194,41,16,12,202,00,19,16,115,00,20,10,068,00,0*7E
$GBGSV,5,4,20,24,24,314,28,26,60,266,49,29,28,051,45,35,64,344,49,0*7B
$GBGSV,5,5,20,38,49,180,46,40,64,018,47,44,32,269,45,45,38,175,46,0*72
$GPRMC,092058.00,A,3110.7590920,N,12124.3622600,E,0.01,182.33,160223,0.0,E,R,V*50
$GPGGA,092058.00,3110.7590920,N,12124.3622600,E,5,24,1.0,23.666,M,10.843,M,1.0,0000*7B
$GNGSA,A,3,01,03,07,08,14,17,21,30,,,,,1.2,0.6,1.1,1*3A
$GNGSA,A,3,01,02,03,04,07,09,10,13,19,24,26,29,1.2,0.6,1.1,4*39
$GPGSV,3,1,09,01,65,033,47,03,36,134,43,07,25,198,41,08,18,076,39,0*67
$GPGSV,3,2,09,14,58,323,45,17,37,297,44,19,11,276,00,21,38,041,44,0*6E
$GPGSV,3,3,09,30,39,240,45,,,,,,,,,,,,,0*52
$GBGSV,5,1,20,01,46,141,44,02,35,235,41,03,51,200,45,04,35,122,42,0*72
$GBGSV,5,2,20,06,13,204,00,07,71,345,46,09,20,219,38,10,60,323,45,0*7F
$GBGSV,5,3,20,13,27,194,41,16,12,202,00,19,16,115,00,20,10,068,00,0*7E
$GBGSV,5,4,20,24,24,314,28,26,60,266,49,29,28,051,45,35,64,344,49,0*7B
$GBGSV,5,5,20,38,49,180,46,40,64,018,47,44,32,269,45,45,38,175,46,0*72
$GPRMC,092059.00,A,3110.7590742,N,12124.3622659,E,0.04,182.33,160223,0.0,E,R,V*52
$GPGGA,092059.00,3110.7590742,N,12124.3622659,E,5,24,1.0,23.779,M,10.843,M,1.0,0000*73
$GNGSA,A,3,01,03,07,08,14,17,21,30,,,,,1.2,0.6,1.1,1*3A
$GNGSA,A,3,01,02,03,04,07,09,10,13,19,24,26,29,1.2,0.6,1.1,4*39
$GPGSV,3,1,09,01,65,033,47,03,36,134,43,07,25,198,42,08,18,076,39,0*64
$GPGSV,3,2,09,14,58,323,45,17,37,297,44,19,11,276,00,21,38,041,44,0*6E
$GPGSV,3,3,09,30,39,240,45,,,,,,,,,,,,,0*52
$GBGSV,5,1,20,01,46,141,45,02,35,235,41,03,51,200,45,04,35,122,42,0*73
$GBGSV,5,2,20,06,13,204,00,07,71,345,46,09,20,219,38,10,60,323,45,0*7F
$GBGSV,5,3,20,13,27,194,41,16,12,202,00,19,16,115,00,20,10,068,00,0*7E
$GBGSV,5,4,20,24,24,314,29,26,60,266,49,29,28,051,45,35,64,344,49,0*7A
$GBGSV,5,5,20,38,49,180,46,40,64,018,47,44,32,269,45,45,38,175,46,0*72
$GPRMC,092100.00,A,3110.7590568,N,12124.3622702,E,0.04,182.33,160223,0.0,E,R,V*5A
$GPGGA,092100.00,3110.7590568,N,12124.3622702,E,5,24,1.0,23.882,M,10.843,M,1.0,0000*70
$GNGSA,A,3,01,03,07,08,14,17,21,30,,,,,1.2,0.6,1.1,1*3A
$GNGSA,A,3,01,02,03,04,07,09,10,13,19,24,26,29,1.2,0.6,1.1,4*39
$GPGSV,3,1,09,01,65,033,47,03,36,134,43,07,25,198,42,08,18,076,39,0*64
$GPGSV,3,2,09,14,58,323,45,17,37,297,44,19,11,276,00,21,38,041,44,0*6E
$GPGSV,3,3,09,30,39,240,45,,,,,,,,,,,,,0*52
$GBGSV,5,1,20,01,46,141,45,02,35,235,41,03,51,200,45,04,35,122,42,0*73
$GBGSV,5,2,20,06,13,204,00,07,71,345,46,09,20,219,38,10,60,323,45,0*7F
$GBGSV,5,3,20,13,27,194,41,16,12,202,00,19,16,115,00,20,10,068,00,0*7E
$GBGSV,5,4,20,24,24,314,29,26,60,266,49,29,28,051,45,35,64,344,49,0*7A
$GBGSV,5,5,20,38,49,180,46,40,64,018,47,44,32,269,45,45,38,175,46,0*72
$GPRMC,092101.00,A,3110.7590324,N,12124.3622762,E,0.01,182.33,160223,0.0,E,R,V*56
$GPGGA,092101.00,3110.7590324,N,12124.3622762,E,5,24,1.0,23.997,M,10.843,M,1.0,0000*7C
$GNGSA,A,3,01,03,07,08,14,17,21,30,,,,,1.2,0.6,1.1,1*3A
$GNGSA,A,3,01,02,03,04,07,09,10,13,19,24,26,29,1.2,0.6,1.1,4*39
$GPGSV,3,1,09,01,65,033,47,03,36,134,43,07,25,198,42,08,18,076,39,0*64
$GPGSV,3,2,09,14,58,323,45,17,37,297,44,19,11,276,00,21,38,041,44,0*6E
$GPGSV,3,3,09,30,39,240,45,,,,,,,,,,,,,0*52
$GBGSV,5,1,20,01,46,141,45,02,35,235,41,03,51,200,45,04,35,122,42,0*73
$GBGSV,5,2,20,06,13,204,00,07,71,345,46,09,20,219,38,10,60,323,45,0*7F
$GBGSV,5,3,20,13,27,194,41,16,12,202,00,19,16,115,00,20,10,068,00,0*7E
$GBGSV,5,4,20,24,24,314,29,26,60,266,50,29,28,051,45,35,64,344,49,0*72
$GBGSV,5,5,20,38,49,180,46,40,64,018,47,44,32,269,45,45,38,175,46,0*72
$GPRMC,092102.00,A,3110.7590130,N,12124.3622815,E,0.02,182.33,160223,0.0,E,R,V*5E
$GPGGA,092102.00,3110.7590130,N,12124.3622815,E,5,24,1.0,24.110,M,10.843,M,1.0,0000*77
$GNGSA,A,3,01,03,07,08,14,17,21,30,,,,,1.2,0.6,1.1,1*3A
$GNGSA,A,3,01,02,03,04,07,09,10,13,19,24,26,29,1.2,0.6,1.1,4*39
$GPGSV,3,1,09,01,65,033,48,03,36,134,43,07,25,198,42,08,18,076,39,0*6B
$GPGSV,3,2,09,14,58,323,45,17,37,297,44,19,11,276,00,21,38,041,44,0*6E
$GPGSV,3,3,09,30,39,240,45,,,,,,,,,,,,,0*52
$GBGSV,5,1,20,01,46,141,45,02,35,235,40,03,51,200,45,04,35,122,42,0*72
$GBGSV,5,2,20,06,13,204,00,07,71,345,45,09,20,219,38,10,60,323,45,0*7C
$GBGSV,5,3,20,13,27,194,41,16,12,202,00,19,16,115,00,20,10,068,00,0*7E
$GBGSV,5,4,20,24,24,314,30,26,60,266,49,29,28,051,45,35,64,344,49,0*72
$GBGSV,5,5,20,38,49,180,46,40,64,018,47,44,32,269,45,45,38,175,46,0*72
$GPRMC,092103.00,A,3110.7589913,N,12124.3622890,E,0.05,182.33,160223,0.0,E,R,V*54
$GPGGA,092103.00,3110.7589913,N,12124.3622890,E,5,24,1.0,24.235,M,10.843,M,1.0,0000*7E
$GNGSA,A,3,01,03,07,08,14,17,21,30,,,,,1.2,0.6,1.1,1*3A
$GNGSA,A,3,01,02,03,04,07,09,10,13,19,24,26,29,1.2,0.6,1.1,4*39
$GPGSV,3,1,09,01,65,033,48,03,36,134,43,07,25,198,42,08,18,076,39,0*6B
$GPGSV,3,2,09,14,58,323,45,17,37,297,44,19,11,276,00,21,38,041,44,0*6E
$GPGSV,3,3,09,30,39,240,45,,,,,,,,,,,,,0*52
$GBGSV,5,1,20,01,46,141,45,02,35,235,40,03,51,200,45,04,35,122,42,0*72
$GBGSV,5,2,20,06,13,204,00,07,71,345,46,09,20,219,38,10,60,323,45,0*7F
$GBGSV,5,3,20,13,27,194,41,16,12,202,00,19,16,115,00,20,10,068,00,0*7E
$GBGSV,5,4,20,24,24,314,30,26,60,266,49,29,28,051,45,35,64,344,49,0*72
$GBGSV,5,5,20,38,49,180,46,40,64,018,47,44,32,269,45,45,38,175,46,0*72
$GPRMC,092104.00,A,3110.7589706,N,12124.3622929,E,0.10,182.33,160223,0.0,E,R,V*5E
$GPGGA,092104.00,3110.7589706,N,12124.3622929,E,5,24,1.0,24.326,M,10.843,M,1.0,0000*73
$GNGSA,A,3,01,03,07,08,14,17,21,30,,,,,1.2,0.6,1.1,1*3A
$GNGSA,A,3,01,02,03,04,07,09,10,13,19,24,26,29,1.2,0.6,1.1,4*39
$GPGSV,3,1,09,01,65,033,47,03,36,134,43,07,25,198,41,08,18,076,39,0*67
$GPGSV,3,2,09,14,58,323,45,17,37,297,44,19,11,276,00,21,38,041,44,0*6E
$GPGSV,3,3,09,30,39,240,45,,,,,,,,,,,,,0*52
$GBGSV,5,1,20,01,46,141,45,02,35,235,41,03,51,200,45,04,35,122,42,0*73
$GBGSV,5,2,20,06,13,204,00,07,71,345,46,09,20,219,38,10,60,323,45,0*7F
$GBGSV,5,3,20,13,27,194,41,16,12,202,00,19,16,115,00,20,10,068,00,0*7E
$GBGSV,5,4,20,24,24,314,30,26,60,266,49,29,28,051,45,35,64,344,49,0*72
$GBGSV,5,5,20,38,49,180,46,40,64,018,47,44,32,269,45,45,38,175,46,0*72
$GPRMC,092105.00,A,3110.7589496,N,12124.3623022,E,0.10,182.33,160223,0.0,E,R,V*56
$GPGGA,092105.00,3110.7589496,N,12124.3623022,E,5,24,1.0,24.443,M,10.843,M,1.0,0000*7F
$GNGSA,A,3,01,03,07,08,14,17,21,30,,,,,1.2,0.6,1.1,1*3A
$GNGSA,A,3,01,02,03,04,07,09,10,13,19,24,26,29,1.2,0.6,1.1,4*39
$GPGSV,3,1,09,01,65,033,47,03,36,134,43,07,25,198,41,08,18,076,39,0*67
$GPGSV,3,2,09,14,58,323,45,17,37,297,44,19,11,276,00,21,38,041,44,0*6E
$GPGSV,3,3,09,30,39,240,45,,,,,,,,,,,,,0*52
$GBGSV,5,1,20,01,46,141,45,02,35,235,41,03,51,200,45,04,35,122,42,0*73
$GBGSV,5,2,20,06,13,204,00,07,71,345,46,09,20,219,38,10,60,323,45,0*7F
$GBGSV,5,3,20,13,27,194,41,16,12,202,00,19,16,115,00,20,11,068,00,0*7F
$GBGSV,5,4,20,24,24,314,30,26,60,266,49,29,28,051,45,35,64,344,49,0*72
$GBGSV,5,5,20,38,49,180,46,40,64,018,47,44,32,269,45,45,38,175,46,0*72
$GPRMC,092106.00,A,3110.7589285,N,12124.3623103,E,0.07,182.33,160223,0.0,E,R,V*55
$GPGGA,092106.00,3110.7589285,N,12124.3623103,E,5,24,1.0,24.560,M,10.843,M,1.0,0000*7A
$GNGSA,A,3,01,03,07,08,14,17,21,30,,,,,1.2,0.6,1.1,1*3A
$GNGSA,A,3,01,02,03,04,07,09,10,13,19,24,26,29,1.2,0.6,1.1,4*39
$GPGSV,3,1,09,01,65,033,47,03,36,134,43,07,25,198,41,08,18,076,39,0*67
$GPGSV,3,2,09,14,58,323,45,17,37,297,44,19,11,276,00,21,38,041,44,0*6E
$GPGSV,3,3,09,30,39,240,45,,,,,,,,,,,,,0*52
$GBGSV,5,1,20,01,46,141,45,02,35,235,41,03,51,200,45,04,35,122,42,0*73
$GBGSV,5,2,20,06,13,204,00,07,71,345,46,09,20,219,38,10,60,323,45,0*7F
$GBGSV,5,3,20,13,27,194,41,16,12,202,00,19,16,115,00,20,11,068,00,0*7F
$GBGSV,5,4,20,24,24,314,30,26,60,266,49,29,28,051,45,35,64,344,49,0*72
$GBGSV,5,5,20,38,49,180,46,40,64,018,47,44,32,269,45,45,38,175,46,0*72
$GPRMC,092107.00,A,3110.7589066,N,12124.3623142,E,0.03,182.33,160223,0.0,E,R,V*5A
$GPGGA,092107.00,3110.7589066,N,12124.3623142,E,5,24,1.0,24.658,M,10.843,M,1.0,0000*79
$GNGSA,A,3,01,03,07,08,14,17,21,30,,,,,1.2,0.6,1.1,1*3A
$GNGSA,A,3,01,02,03,04,07,09,10,13,19,24,26,29,1.2,0.6,1.1,4*39
$GPGSV,3,1,09,01,65,033,47,03,36,134,43,07,25,198,41,08,18,076,39,0*67
$GPGSV,3,2,09,14,58,323,45,17,37,297,44,19,11,276,00,21,38,041,44,0*6E
$GPGSV,3,3,09,30,39,240,45,,,,,,,,,,,,,0*52
$GBGSV,5,1,20,01,46,141,45,02,35,235,41,03,51,200,45,04,35,122,42,0*73
$GBGSV,5,2,20,06,13,204,00,07,71,345,46,09,20,219,38,10,60,324,45,0*78
$GBGSV,5,3,20,13,27,194,41,16,12,202,00,19,16,115,00,20,11,068,00,0*7F
$GBGSV,5,4,20,24,24,314,30,26,60,266,49,29,28,051,45,35,64,344,49,0*72
$GBGSV,5,5,20,38,49,180,46,40,64,018,47,44,32,269,45,45,38,175,46,0*72
$GPRMC,092108.00,A,3110.7588878,N,12124.3623224,E,0.01,182.33,160223,0.0,E,R,V*52
$GPGGA,092108.00,3110.7588878,N,12124.3623224,E,5,24,1.0,24.766,M,10.843,M,1.0,0000*7F
$GNGSA,A,3,01,03,07,08,14,17,21,30,,,,,1.2,0.6,1.1,1*3A
$GNGSA,A,3,01,02,03,04,07,09,10,13,19,24,26,29,1.2,0.6,1.1,4*39
$GPGSV,3,1,09,01,65,033,47,03,36,134,43,07,25,198,41,08,18,076,39,0*67
$GPGSV,3,2,09,14,58,323,45,17,37,297,44,19,11,276,00,21,38,041,43,0*69
$GPGSV,3,3,09,30,39,240,45,,,,,,,,,,,,,0*52
$GBGSV,5,1,20,01,46,141,45,02,35,235,41,03,51,200,45,04,35,122,42,0*73
$GBGSV,5,2,20,06,13,204,00,07,71,345,46,09,20,219,38,10,60,324,45,0*78
$GBGSV,5,3,20,13,27,194,41,16,11,202,00,19,16,115,00,20,11,068,00,0*7C
$GBGSV,5,4,20,24,24,314,31,26,60,266,49,29,28,051,45,35,64,344,49,0*73
$GBGSV,5,5,20,38,49,180,46,40,64,018,47,44,32,269,45,45,38,175,46,0*72
$GPRMC,092109.00,A,3110.7588717,N,12124.3623293,E,0.01,182.33,160223,0.0,E,R,V*59
$GPGGA,092109.00,3110.7588717,N,12124.3623293,E,5,24,1.0,24.865,M,10.843,M,1.0,0000*78
$GNGSA,A,3,01,03,07,08,14,17,21,30,,,,,1.2,0.6,1.1,1*3A
$GNGSA,A,3,01,02,03,04,07,09,10,13,19,24,26,29,1.2,0.6,1.1,4*39
$GPGSV,3,1,09,01,65,033,47,03,36,134,43,07,25,198,41,08,18,076,39,0*67
$GPGSV,3,2,09,14,58,323,46,17,37,297,44,19,11,276,00,21,38,041,43,0*6A
$GPGSV,3,3,09,30,39,240,45,,,,,,,,,,,,,0*52
$GBGSV,5,1,20,01,46,141,45,02,35,235,40,03,51,200,45,04,35,122,42,0*72
$GBGSV,5,2,20,06,13,204,00,07,71,345,46,09,20,219,38,10,60,324,45,0*78
$GBGSV,5,3,20,13,27,194,41,16,11,202,00,19,16,115,00,20,11,068,00,0*7C
$GBGSV,5,4,20,24,24,314,31,26,60,266,49,29,28,051,45,35,64,345,49,0*72
$GBGSV,5,5,20,38,49,181,46,40,64,018,47,44,32,269,45,45,38,175,46,0*73
$GPRMC,092110.00,A,3110.7588527,N,12124.3623341,E,0.02,182.33,160223,0.0,E,R,V*5D
$GPGGA,092110.00,3110.7588527,N,12124.3623341,E,5,24,1.0,24.968,M,10.843,M,1.0,0000*73
$GNGSA,A,3,01,03,07,08,14,17,21,30,,,,,1.2,0.6,1.1,1*3A
$GNGSA,A,3,01,02,03,04,07,09,10,13,19,24,26,29,1.2,0.6,1.1,4*39
$GPGSV,3,1,09,01,65,033,47,03,36,134,43,07,25,198,41,08,18,076,39,0*67
$GPGSV,3,2,09,14,58,323,46,17,37,297,44,19,11,276,00,21,38,041,43,0*6A
$GPGSV,3,3,09,30,39,240,45,,,,,,,,,,,,,0*52
$GBGSV,5,1,20,01,46,141,45,02,35,235,41,03,51,200,45,04,35,122,42,0*73
$GBGSV,5,2,20,06,13,204,00,07,71,345,46,09,20,219,38,10,60,324,45,0*78
$GBGSV,5,3,20,13,27,194,41,16,11,202,00,19,16,115,00,20,11,067,00,0*73
$GBGSV,5,4,20,24,24,314,31,26,60,266,49,29,28,051,45,35,64,345,49,0*72
$GBGSV,5,5,20,38,49,181,46,40,64,018,47,44,32,269,45,45,38,175,46,0*73
$GPRMC,092111.00,A,3110.7588377,N,12124.3623417,E,0.03,182.33,160223,0.0,E,R,V*5A
$GPGGA,092111.00,3110.7588377,N,12124.3623417,E,5,24,1.0,25.070,M,10.843,M,1.0,0000*74
$GNGSA,A,3,01,03,07,08,14,17,21,30,,,,,1.2,0.6,1.1,1*3A
$GNGSA,A,3,01,02,03,04,07,09,10,13,19,24,26,29,1.2,0.6,1.1,4*39
$GPGSV,3,1,09,01,65,033,47,03,36,134,43,07,25,198,41,08,18,076,39,0*67
$GPGSV,3,2,09,14,58,323,46,17,37,297,44,19,11,276,00,21,38,041,43,0*6A
$GPGSV,3,3,09,30,39,240,45,,,,,,,,,,,,,0*52
$GBGSV,5,1,20,01,46,141,45,02,35,235,41,03,51,200,45,04,35,122,42,0*73
$GBGSV,5,2,20,06,13,204,00,07,71,345,46,09,20,219,38,10,60,324,45,0*78
$GBGSV,5,3,20,13,27,194,41,16,11,202,00,19,16,115,00,20,11,067,00,0*73
$GBGSV,5,4,20,24,24,314,32,26,60,266,49,29,28,051,45,35,64,345,49,0*71
$GBGSV,5,5,20,38,49,181,46,40,64,018,47,44,32,269,45,45,38,175,46,0*73
$GPRMC,092112.00,A,3110.7588216,N,12124.3623476,E,0.05,182.33,160223,0.0,E,R,V*5E
$GPGGA,092112.00,3110.7588216,N,12124.3623476,E,5,24,1.0,25.177,M,10.843,M,1.0,0000*70
$GNGSA,A,3,01,03,07,08,14,17,21,30,,,,,1.2,0.6,1.1,1*3A
$GNGSA,A,3,01,02,03,04,07,09,10,13,19,24,26,29,1.2,0.6,1.1,4*39
$GPGSV,3,1,09,01,65,033,47,03,36,134,43,07,25,198,42,08,18,076,39,0*64
$GPGSV,3,2,09,14,59,323,46,17,37,297,44,19,11,276,00,21,38,041,44,0*6C
$GPGSV,3,3,09,30,39,240,45,,,,,,,,,,,,,0*52
$GBGSV,5,1,20,01,46,141,45,02,35,235,41,03,51,200,45,04,35,122,42,0*73
$GBGSV,5,2,20,06,13,204,00,07,71,345,46,09,20,219,38,10,60,324,45,0*78
$GBGSV,5,3,20,13,27,194,41,16,11,202,00,19,16,115,00,20,11,067,00,0*73
$GBGSV,5,4,20,24,24,314,32,26,60,266,49,29,28,051,45,35,64,345,49,0*71
$GBGSV,5,5,20,38,49,181,46,40,64,018,47,44,32,269,45,45,38,175,46,0*73
$GPRMC,092113.00,A,3110.7588039,N,12124.3623527,E,0.05,182.33,160223,0.0,E,R,V*55
$GPGGA,092113.00,3110.7588039,N,12124.3623527,E,5,24,1.0,25.286,M,10.843,M,1.0,0000*76
$GNGSA,A,3,01,03,07,08,14,17,21,30,,,,,1.2,0.6,1.1,1*3A
$GNGSA,A,3,01,02,03,04,07,09,10,13,19,24,26,29,1.2,0.6,1.1,4*39
$GPGSV,3,1,09,01,65,033,47,03,36,134,43,07,25,198,42,08,18,076,39,0*64
$GPGSV,3,2,09,14,59,323,45,17,37,297,44,19,11,276,00,21,38,041,44,0*6F
$GPGSV,3,3,09,30,39,240,45,,,,,,,,,,,,,0*52
$GBGSV,5,1,20,01,46,141,45,02,35,235,41,03,51,200,45,04,35,122,42,0*73
$GBGSV,5,2,20,06,13,204,00,07,71,345,46,09,20,219,37,10,60,324,45,0*77
$GBGSV,5,3,20,13,27,194,41,16,11,202,00,19,16,115,00,20,11,067,00,0*73
$GBGSV,5,4,20,24,24,314,32,26,60,266,49,29,28,051,45,35,64,345,49,0*71
$GBGSV,5,5,20,38,49,181,46,40,64,018,47,44,32,269,45,45,38,175,46,0*73
$GPRMC,092114.00,A,3110.7587876,N,12124.3623612,E,0.05,182.33,160223,0.0,E,R,V*5B
$GPGGA,092114.00,3110.7587876,N,12124.3623612,E,5,24,1.0,25.398,M,10.843,M,1.0,0000*76
$GNGSA,A,3,01,03,07,08,14,17,21,30,,,,,1.2,0.6,1.1,1*3A
$GNGSA,A,3,01,02,03,04,07,09,10,13,19,24,26,29,1.2,0.6,1.1,4*39
$GPGSV,3,1,09,01,65,033,47,03,36,134,43,07,25,198,41,08,18,076,40,0*69
$GPGSV,3,2,09,14,59,323,46,17,37,297,44,19,11,276,00,21,38,041,44,0*6C
$GPGSV,3,3,09,30,39,240,45,,,,,,,,,,,,,0*52
$GBGSV,5,1,20,01,46,141,45,02,35,235,41,03,51,200,45,04,35,122,42,0*73
$GBGSV,5,2,20,06,13,204,00,07,71,345,46,09,20,219,38,10,60,324,45,0*78
$GBGSV,5,3,20,13,27,194,41,16,11,202,00,19,16,115,00,20,11,067,00,0*73
$GBGSV,5,4,20,24,24,314,32,26,60,266,49,29,28,051,45,35,64,345,49,0*71
$GBGSV,5,5,20,38,49,181,46,40,64,018,47,44,32,269,45,45,38,175,46,0*73
$GPRMC,092115.00,A,3110.7587730,N,12124.3623667,E,0.08,182.33,160223,0.0,E,R,V*58
$GPGGA,092115.00,3110.7587730,N,12124.3623667,E,5,24,1.0,25.499,M,10.843,M,1.0,0000*7E
$GNGSA,A,3,01,03,07,08,14,17,21,30,,,,,1.2,0.6,1.1,1*3A
$GNGSA,A,3,01,02,03,04,07,09,10,13,19,24,26,29,1.2,0.6,1.1,4*39
$GPGSV,3,1,09,01,65,033,47,03,36,134,43,07,25,198,41,08,18,076,40,0*69
$GPGSV,3,2,09,14,59,323,46,17,37,297,44,19,12,276,00,21,38,041,44,0*6F
$GPGSV,3,3,09,30,39,240,45,,,,,,,,,,,,,0*52
$GBGSV,5,1,20,01,46,141,45,02,35,235,41,03,51,200,45,04,35,122,42,0*73
$GBGSV,5,2,20,06,13,204,00,07,71,345,46,09,20,219,38,10,60,324,45,0*78
$GBGSV,5,3,20,13,27,194,41,16,11,202,00,19,16,115,00,20,11,067,00,0*73
$GBGSV,5,4,20,24,24,314,32,26,60,266,49,29,28,051,45,35,64,345,49,0*71
$GBGSV,5,5,20,38,49,181,46,40,64,018,47,44,32,269,45,45,38,175,46,0*73
$GPRMC,092116.00,A,3110.7587574,N,12124.3623741,E,0.07,182.33,160223,0.0,E,R,V*53
$GPGGA,092116.00,3110.7587574,N,12124.3623741,E,5,24,1.0,25.601,M,10.843,M,1.0,0000*79
$GNGSA,A,3,01,03,07,08,14,17,21,30,,,,,1.2,0.6,1.1,1*3A
$GNGSA,A,3,01,02,03,04,07,09,10,13,19,24,26,29,1.2,0.6,1.1,4*39
$GPGSV,3,1,09,01,65,033,47,03,36,134,43,07,25,198,41,08,18,076,39,0*67
$GPGSV,3,2,09,14,59,323,45,17,37,297,45,19,12,276,00,21,38,041,44,0*6D
$GPGSV,3,3,09,30,39,240,45,,,,,,,,,,,,,0*52
$GBGSV,5,1,20,01,46,141,45,02,35,235,40,03,51,200,46,04,35,122,42,0*71
$GBGSV,5,2,20,06,13,204,00,07,71,345,46,09,20,219,38,10,60,324,45,0*78
$GBGSV,5,3,20,13,27,194,41,16,11,202,00,19,16,115,00,20,11,067,00,0*73
$GBGSV,5,4,20,24,24,314,32,26,60,266,49,29,28,051,45,35,64,345,49,0*71
$GBGSV,5,5,20,38,49,181,46,40,64,018,47,44,32,269,45,45,38,175,46,0*73
$GPRMC,092117.00,A,3110.7587463,N,12124.3623801,E,0.06,182.33,160223,0.0,E,R,V*5F
$GPGGA,092117.00,3110.7587463,N,12124.3623801,E,5,24,1.0,25.697,M,10.843,M,1.0,0000*7B
$GNGSA,A,3,01,03,07,08,14,17,21,30,,,,,1.2,0.6,1.1,1*3A
$GNGSA,A,3,01,02,03,04,07,09,10,13,19,24,26,29,1.2,0.6,1.1,4*39
$GPGSV,3,1,09,01,65,033,47,03,36,134,43,07,25,198,41,08,18,076,39,0*67
$GPGSV,3,2,09,14,59,323,45,17,37,297,45,19,12,276,00,21,38,041,44,0*6D
$GPGSV,3,3,09,30,39,240,45,,,,,,,,,,,,,0*52
$GBGSV,5,1,20,01,46,141,45,02,35,235,40,03,51,200,46,04,35,122,42,0*71
$GBGSV,5,2,20,06,13,204,00,07,71,345,45,09,20,219,38,10,60,324,45,0*7B
$GBGSV,5,3,20,13,27,194,41,16,11,202,00,19,16,115,00,20,11,067,00,0*73
$GBGSV,5,4,20,24,24,314,32,26,60,266,49,29,28,051,45,35,64,345,49,0*71
$GBGSV,5,5,20,38,49,181,46,40,64,018,47,44,32,269,45,45,38,175,46,0*73
$GPRMC,092118.00,A,3110.7587337,N,12124.3623862,E,0.07,182.33,160223,0.0,E,R,V*52
$GPGGA,092118.00,3110.7587337,N,12124.3623862,E,5,24,1.0,25.790,M,10.843,M,1.0,0000*71
$GNGSA,A,3,01,03,07,08,14,17,21,30,,,,,1.2,0.6,1.1,1*3A
$GNGSA,A,3,01,02,03,04,07,09,10,13,19,24,26,29,1.2,0.6,1.1,4*39
$GPGSV,3,1,09,01,65,033,47,03,36,134,43,07,25,198,41,08,18,076,40,0*69
$GPGSV,3,2,09,14,59,323,45,17,37,297,45,19,12,276,00,21,38,041,44,0*6D
$GPGSV,3,3,09,30,39,240,45,,,,,,,,,,,,,0*52
$GBGSV,5,1,20,01,46,141,45,02,35,235,40,03,51,200,45,04,35,122,42,0*72
$GBGSV,5,2,20,06,13,204,00,07,71,345,45,09,20,219,37,10,61,324,45,0*75
$GBGSV,5,3,20,13,27,194,41,16,11,202,00,19,16,115,00,20,11,067,00,0*73
$GBGSV,5,4,20,24,24,314,32,26,60,266,49,29,28,051,45,35,64,345,49,0*71
$GBGSV,5,5,20,38,49,181,46,40,64,018,47,44,32,269,45,45,38,175,46,0*73
$GPRMC,092119.00,A,3110.7587182,N,12124.3623937,E,0.06,182.33,160223,0.0,E,R,V*5F
$GPGGA,092119.00,3110.7587182,N,12124.3623937,E,5,24,1.0,25.884,M,10.843,M,1.0,0000*77
$GNGSA,A,3,01,03,07,08,14,17,21,30,,,,,1.2,0.6,1.1,1*3A
$GNGSA,A,3,01,02,03,04,07,09,10,13,19,24,26,29,1.2,0.6,1.1,4*39
$GPGSV,3,1,09,01,65,033,47,03,36,134,43,07,25,198,41,08,18,076,40,0*69
$GPGSV,3,2,09,14,59,323,45,17,37,297,45,19,12,276,00,21,38,041,44,0*6D
$GPGSV,3,3,09,30,39,240,45,,,,,,,,,,,,,0*52
$GBGSV,5,1,20,01,46,141,45,02,35,235,41,03,51,200,45,04,35,122,42,0*73
$GBGSV,5,2,20,06,13,204,00,07,71,345,45,09,20,219,38,10,61,324,45,0*7A
$GBGSV,5,3,20,13,27,194,41,16,11,202,00,19,16,115,00,20,11,067,00,0*73
$GBGSV,5,4,20,24,24,314,33,26,60,266,49,29,28,051,45,35,64,345,49,0*70
$GBGSV,5,5,20,38,49,181,46,40,64,018,47,44,32,269,45,45,38,175,46,0*73
$GPRMC,092120.00,A,3110.7587078,N,12124.3624011,E,0.04,182.33,160223,0.0,E,R,V*59
$GPGGA,092120.00,3110.7587078,N,12124.3624011,E,5,24,1.0,25.969,M,10.843,M,1.0,0000*71
$GNGSA,A,3,01,03,07,08,14,17,21,30,,,,,1.2,0.6,1.1,1*3A
$GNGSA,A,3,01,02,03,04,07,09,10,13,19,24,26,29,1.2,0.6,1.1,4*39
$GPGSV,3,1,09,01,65,033,47,03,36,134,43,07,25,198,41,08,18,076,39,0*67
$GPGSV,3,2,09,14,59,323,45,17,37,297,44,19,12,276,00,21,38,041,44,0*6C
$GPGSV,3,3,09,30,39,240,45,,,,,,,,,,,,,0*52
$GBGSV,5,1,20,01,46,141,45,02,35,235,40,03,51,200,45,04,35,122,42,0*72
$GBGSV,5,2,20,06,13,204,00,07,71,345,45,09,20,219,38,10,61,324,45,0*7A
$GBGSV,5,3,20,13,27,194,41,16,11,202,00,19,16,115,00,20,11,067,00,0*73
$GBGSV,5,4,20,24,24,314,33,26,60,266,49,29,28,051,45,35,64,345,49,0*70
$GBGSV,5,5,20,38,49,181,46,40,64,018,47,44,32,269,45,45,38,175,46,0*73
$GPRMC,092121.00,A,3110.7586948,N,12124.3624061,E,0.03,182.33,160223,0.0,E,R,V*53
$GPGGA,092121.00,3110.7586948,N,12124.3624061,E,5,24,1.0,26.058,M,10.843,M,1.0,0000*74
$GNGSA,A,3,01,03,07,08,14,17,21,30,,,,,1.2,0.6,1.1,1*3A
$GNGSA,A,3,01,02,03,04,07,09,10,13,19,24,26,29,1.2,0.6,1.1,4*39
$GPGSV,3,1,09,01,65,033,48,03,36,134,43,07,25,198,41,08,18,076,39,0*68
$GPGSV,3,2,09,14,59,323,45,17,37,297,44,19,12,276,00,21,38,041,43,0*6B
$GPGSV,3,3,09,30,39,240,45,,,,,,,,,,,,,0*52
$GBGSV,5,1,20,01,46,141,45,02,35,235,41,03,51,200,45,04,35,122,42,0*73
$GBGSV,5,2,20,06,13,204,00,07,71,345,45,09,20,219,38,10,61,324,45,0*7A
$GBGSV,5,3,20,13,27,194,41,16,11,202,00,19,16,115,00,20,11,067,00,0*73
$GBGSV,5,4,20,24,24,314,33,26,60,266,49,29,28,051,45,35,64,345,49,0*70
$GBGSV,5,5,20,38,49,181,46,40,64,018,47,44,32,269,45,45,38,175,46,0*73
$GPRMC,092122.00,A,3110.7586800,N,12124.3624133,E,0.04,182.33,160223,0.0,E,R,V*5C
$GPGGA,092122.00,3110.7586800,N,12124.3624133,E,5,24,1.0,26.143,M,10.843,M,1.0,0000*77
$GNGSA,A,3,01,03,07,08,14,17,21,30,,,,,1.2,0.6,1.1,1*3A
$GNGSA,A,3,01,02,03,04,07,09,10,13,19,24,26,29,1.2,0.6,1.1,4*39
$GPGSV,3,1,09,01,65,033,48,03,36,134,43,07,25,198,41,08,18,076,39,0*68
$GPGSV,3,2,09,14,59,323,45,17,37,297,44,19,12,276,00,21,38,041,43,0*6B
$GPGSV,3,3,09,30,39,240,45,,,,,,,,,,,,,0*52
$GBGSV,5,1,20,01,46,141,45,02,35,235,41,03,51,200,45,04,35,122,42,0*73
$GBGSV,5,2,20,06,13,204,00,07,71,345,45,09,20,219,38,10,61,324,45,0*7A
$GBGSV,5,3,20,13,27,194,41,16,11,202,00,19,16,115,00,20,11,067,00,0*73
$GBGSV,5,4,20,24,24,314,33,26,60,266,49,29,28,051,45,35,64,345,49,0*70
$GBGSV,5,5,20,38,49,181,46,40,64,018,47,44,32,269,45,45,38,175,46,0*73
$GPRMC,092123.00,A,3110.7586670,N,12124.3624196,E,0.04,182.33,160223,0.0,E,R,V*5B
$GPGGA,092123.00,3110.7586670,N,12124.3624196,E,5,24,1.0,26.221,M,10.843,M,1.0,0000*77
$GNGSA,A,3,01,03,07,08,14,17,21,30,,,,,1.2,0.6,1.1,1*3A
$GNGSA,A,3,01,02,03,04,07,09,10,13,19,24,26,29,1.2,0.6,1.1,4*39
$GPGSV,3,1,09,01,65,033,47,03,36,134,43,07,25,198,41,08,18,076,39,0*67
$GPGSV,3,2,09,14,59,323,45,17,37,297,44,19,12,276,00,21,38,041,43,0*6B
$GPGSV,3,3,09,30,39,240,45,,,,,,,,,,,,,0*52
$GBGSV,5,1,20,01,46,141,45,02,35,235,41,03,51,200,45,04,35,122,42,0*73
$GBGSV,5,2,20,06,13,204,00,07,71,345,45,09,20,219,38,10,61,324,45,0*7A
$GBGSV,5,3,20,13,27,194,41,16,11,202,00,19,16,115,00,20,11,067,00,0*73
$GBGSV,5,4,20,24,24,314,33,26,60,266,49,29,28,051,45,35,64,345,49,0*70
$GBGSV,5,5,20,38,49,181,46,40,64,018,47,44,32,269,45,45,38,175,46,0*73
$GPRMC,092124.00,A,3110.7586564,N,12124.3624243,E,0.04,182.33,160223,0.0,E,R,V*51
$GPGGA,092124.00,3110.7586564,N,12124.3624243,E,5,24,1.0,26.299,M,10.843,M,1.0,0000*7E
$GNGSA,A,3,01,03,07,08,14,17,21,30,,,,,1.2,0.6,1.1,1*3A
$GNGSA,A,3,01,02,03,04,07,09,10,13,19,24,26,29,1.2,0.6,1.1,4*39
$GPGSV,3,1,09,01,65,033,47,03,36,134,43,07,25,198,41,08,18,076,39,0*67
$GPGSV,3,2,09,14,59,323,45,17,37,297,44,19,12,276,00,21,38,041,43,0*6B
$GPGSV,3,3,09,30,39,240,45,,,,,,,,,,,,,0*52
$GBGSV,5,1,20,01,46,141,45,02,35,235,41,03,51,200,45,04,35,122,42,0*73
$GBGSV,5,2,20,06,13,204,00,07,71,345,45,09,20,219,38,10,61,324,45,0*7A
$GBGSV,5,3,20,13,27,194,41,16,11,202,00,19,16,115,00,20,11,067,00,0*73
$GBGSV,5,4,20,24,24,314,33,26,60,266,49,29,28,051,45,35,64,345,49,0*70
$GBGSV,5,5,20,38,49,181,46,40,64,018,47,44,32,269,45,45,38,175,46,0*73
$GPRMC,092125.00,A,3110.7586453,N,12124.3624295,E,0.05,182.33,160223,0.0,E,R,V*5F
$GPGGA,092125.00,3110.7586453,N,12124.3624295,E,5,24,1.0,26.365,M,10.843,M,1.0,0000*73
$GNGSA,A,3,01,03,07,08,14,17,21,30,,,,,1.2,0.6,1.1,1*3A
$GNGSA,A,3,01,02,03,04,07,09,10,13,19,24,26,29,1.2,0.6,1.1,4*39
$GPGSV,3,1,09,01,65,033,47,03,36,134,43,07,25,198,41,08,17,076,39,0*68
$GPGSV,3,2,09,14,59,323,46,17,37,297,44,19,12,276,00,21,38,041,43,0*68
$GPGSV,3,3,09,30,39,240,45,,,,,,,,,,,,,0*52
$GBGSV,5,1,20,01,46,141,45,02,35,235,41,03,51,200,45,04,35,122,41,0*70
$GBGSV,5,2,20,06,13,204,00,07,71,345,45,09,20,219,38,10,61,324,45,0*7A
$GBGSV,5,3,20,13,27,194,41,16,11,202,00,19,16,115,00,20,11,067,00,0*73
$GBGSV,5,4,20,24,24,314,33,26,60,266,49,29,28,051,45,35,64,345,49,0*70
$GBGSV,5,5,20,38,49,181,46,40,64,018,47,44,32,269,45,45,38,175,46,0*73
$GPRMC,092126.00,A,3110.7586342,N,12124.3624348,E,0.04,182.33,160223,0.0,E,R,V*5B
$GPGGA,092126.00,3110.7586342,N,12124.3624348,E,5,24,1.0,26.440,M,10.843,M,1.0,0000*76
$GNGSA,A,3,01,03,07,08,14,17,21,30,,,,,1.2,0.6,1.1,1*3A
$GNGSA,A,3,01,02,03,04,07,09,10,13,19,24,26,29,1.2,0.6,1.1,4*39
$GPGSV,3,1,09,01,65,033,47,03,36,134,43,07,25,198,41,08,17,076,40,0*66
$GPGSV,3,2,09,14,59,323,45,17,37,297,44,19,12,276,00,21,38,041,43,0*6B
$GPGSV,3,3,09,30,39,240,45,,,,,,,,,,,,,0*52
$GBGSV,5,1,20,01,46,141,45,02,35,235,41,03,51,200,45,04,35,122,41,0*70
$GBGSV,5,2,20,06,13,204,00,07,71,345,46,09,20,219,38,10,61,324,45,0*79
$GBGSV,5,3,20,13,27,194,41,16,11,202,00,19,16,115,00,20,11,067,00,0*73
$GBGSV,5,4,20,24,24,314,33,26,60,266,49,29,28,051,45,35,64,345,49,0*70
$GBGSV,5,5,20,38,49,181,46,40,64,018,47,44,32,269,45,45,38,175,46,0*73
$GPRMC,092127.00,A,3110.7586220,N,12124.3624399,E,0.04,182.33,160223,0.0,E,R,V*53
$GPGGA,092127.00,3110.7586220,N,12124.3624399,E,5,24,1.0,26.504,M,10.843,M,1.0,0000*7F
$GNGSA,A,3,01,03,07,08,14,17,21,30,,,,,1.2,0.6,1.1,1*3A
$GNGSA,A,3,01,02,03,04,07,09,10,13,19,24,26,29,1.2,0.6,1.1,4*39
$GPGSV,3,1,09,01,65,033,47,03,36,134,43,07,25,198,41,08,17,076,40,0*66
$GPGSV,3,2,09,14,59,323,46,17,37,297,44,19,12,276,00,21,38,041,43,0*68
$GPGSV,3,3,09,30,39,240,45,,,,,,,,,,,,,0*52
$GBGSV,5,1,20,01,46,141,45,02,35,235,40,03,51,200,45,04,35,122,41,0*71
$GBGSV,5,2,20,06,13,204,00,07,71,345,46,09,20,219,38,10,61,324,45,0*79
$GBGSV,5,3,20,13,27,194,41,16,11,202,00,19,16,115,00,20,11,067,00,0*73
$GBGSV,5,4,20,24,24,314,32,26,60,266,49,29,28,051,45,35,64,345,49,0*71
$GBGSV,5,5,20,38,49,181,46,40,64,018,47,44,32,269,45,45,38,175,46,0*73
$GPRMC,092128.00,A,3110.7586115,N,12124.3624443,E,0.04,182.33,160223,0.0,E,R,V*59
$GPGGA,092128.00,3110.7586115,N,12124.3624443,E,5,24,1.0,26.563,M,10.843,M,1.0,0000*74
$GNGSA,A,3,01,03,07,08,14,17,21,30,,,,,1.2,0.6,1.1,1*3A
$GNGSA,A,3,01,02,03,04,07,09,10,13,19,24,26,29,1.2,0.6,1.1,4*39
$GPGSV,3,1,09,01,65,033,47,03,36,134,43,07,25,198,41,08,17,076,40,0*66
$GPGSV,3,2,09,14,59,323,46,17,37,297,44,19,12,276,00,21,38,041,43,0*68
$GPGSV,3,3,09,30,39,240,45,,,,,,,,,,,,,0*52
$GBGSV,5,1,20,01,46,141,45,02,35,235,40,03,51,200,45,04,35,122,42,0*72
$GBGSV,5,2,20,06,13,204,00,07,71,345,46,09,20,219,38,10,61,324,45,0*79
$GBGSV,5,3,20,13,27,194,41,16,11,202,00,19,16,115,00,20,11,067,00,0*73
$GBGSV,5,4,20,24,24,314,33,26,60,266,49,29,28,051,45,35,64,345,49,0*70
$GBGSV,5,5,20,38,49,181,46,40,64,018,47,44,32,269,45,45,38,175,46,0*73
$GPRMC,092129.00,A,3110.7586030,N,12124.3624484,E,0.03,182.33,160223,0.0,E,R,V*52
$GPGGA,092129.00,3110.7586030,N,12124.3624484,E,5,24,1.0,26.619,M,10.843,M,1.0,0000*76
$GNGSA,A,3,01,03,07,08,14,17,21,30,,,,,1.2,0.6,1.1,1*3A
$GNGSA,A,3,01,02,03,04,07,09,10,13,19,24,26,29,1.2,0.6,1.1,4*39
$GPGSV,3,1,09,01,65,033,47,03,36,134,43,07,25,198,41,08,17,076,40,0*66
$GPGSV,3,2,09,14,59,323,46,17,37,297,44,19,12,276,00,21,38,041,43,0*68
$GPGSV,3,3,09,30,39,240,45,,,,,,,,,,,,,0*52
$GBGSV,5,1,20,01,46,141,45,02,35,235,40,03,51,200,45,04,35,122,42,0*72
$GBGSV,5,2,20,06,13,204,00,07,71,345,46,09,20,219,38,10,61,324,45,0*79
$GBGSV,5,3,20,13,27,194,41,16,11,202,00,19,16,115,00,20,11,067,00,0*73
$GBGSV,5,4,20,24,24,314,33,26,60,266,49,29,28,051,45,35,64,345,49,0*70
$GBGSV,5,5,20,38,49,181,46,40,64,018,47,44,32,269,45,45,38,175,46,0*73
$GPRMC,092130.00,A,3110.7585931,N,12124.3624508,E,0.02,182.33,160223,0.0,E,R,V*55
$GPGGA,092130.00,3110.7585931,N,12124.3624508,E,5,24,1.0,26.673,M,10.843,M,1.0,0000*7C
$GNGSA,A,3,01,03,07,08,14,17,21,30,,,,,1.2,0.6,1.1,1*3A
$GNGSA,A,3,01,02,03,04,07,09,10,13,19,24,26,29,1.2,0.6,1.1,4*39
$GPGSV,3,1,09,01,65,033,47,03,36,134,43,07,25,198,41,08,17,076,40,0*66
$GPGSV,3,2,09,14,59,323,46,17,37,297,44,19,12,276,00,21,38,041,43,0*68
$GPGSV,3,3,09,30,39,240,45,,,,,,,,,,,,,0*52
$GBGSV,5,1,20,01,46,141,45,02,35,235,40,03,51,200,45,04,35,122,42,0*72
$GBGSV,5,2,20,06,13,204,00,07,71,345,46,09,20,219,38,10,61,324,45,0*79
$GBGSV,5,3,20,13,27,194,41,16,11,202,00,19,16,115,00,20,11,067,00,0*73
$GBGSV,5,4,20,24,24,314,33,26,60,266,49,29,28,051,45,35,64,345,49,0*70
$GBGSV,5,5,20,38,49,181,46,40,64,018,47,44,32,269,45,45,38,175,46,0*73
$GPRMC,092131.00,A,3110.7585833,N,12124.3624538,E,0.03,182.33,160223,0.0,E,R,V*55
$GPGGA,092131.00,3110.7585833,N,12124.3624538,E,5,24,1.0,26.717,M,10.843,M,1.0,0000*7E
$GNGSA,A,3,01,03,07,08,14,17,21,30,,,,,1.2,0.6,1.1,1*3A
$GNGSA,A,3,01,02,03,04,07,09,10,13,19,24,26,29,1.2,0.6,1.1,4*39
$GPGSV,3,1,09,01,65,033,47,03,36,134,43,07,25,198,41,08,17,076,40,0*66
$GPGSV,3,2,09,14,59,323,46,17,37,297,44,19,12,276,00,21,38,041,43,0*68
$GPGSV,3,3,09,30,39,240,45,,,,,,,,,,,,,0*52
$GBGSV,5,1,20,01,46,141,45,02,35,235,40,03,51,200,45,04,35,122,42,0*72
$GBGSV,5,2,20,06,13,204,00,07,71,345,46,09,20,219,38,10,61,324,45,0*79
$GBGSV,5,3,20,13,27,194,41,16,11,202,00,19,16,115,00,20,11,067,00,0*73
$GBGSV,5,4,20,24,24,314,33,26,60,266,49,29,28,051,45,35,64,345,49,0*70
$GBGSV,5,5,20,38,49,181,46,40,64,018,47,44,32,269,45,45,38,175,46,0*73
$GPRMC,092132.00,A,3110.7585743,N,12124.3624575,E,0.02,182.33,160223,0.0,E,R,V*56
$GPGGA,092132.00,3110.7585743,N,12124.3624575,E,5,24,1.0,26.760,M,10.843,M,1.0,0000*7C
$GNGSA,A,3,01,03,07,08,14,17,21,30,,,,,1.2,0.6,1.1,1*3A
